id	name	brewery_type	address_1	city	state	postal_code	country	latitude	longitude	phone	website_url	source_state	source_state_code
osm:way:827259232	948 Brewing Company Ltd.	micro	541 Kingsview Way SE, Unit 104	Airdrie	Alberta	T4A 0C9	Canada	51.2612994	-113.9973638		http://www.948brewing.ca/	AB	AB
osm:way:815120506	Fitzsimmons Brewing Company	micro	220 East Lake Boulevard NE, Unit 4	Airdrie	Alberta	T4A 2G2	Canada	51.2897049	-113.9909651			AB	AB
osm:node:6783712313	Three Ravens Restaurant & Wine Bar	brewpub	107 Tunnel Mountain Drive, Unit Sally Borden Building, 3rd Floor	Banff	Alberta	T1L 1H5	Canada	51.1717842	-115.5611998		https://www.banffcentre.ca/three-ravens-restaurant-wine-bar	AB	AB
osm:way:1024727096	The Pass Beer Co.	micro	10801 20 Avenue	Blairmore	Alberta	T0K 0E0	Canada	49.6160399	-114.4606175		https://passbeer.ca/	AB	AB
osm:way:338872643	The Place	micro	10801 20 Avenue	Blairmore	Alberta	T0K 0E0	Canada	49.6935065	-112.8389055	14037531100	http://passbeer.ca/	AB	AB
osm:node:9642113322	Delta Brewstilary	micro	27 Burnside Dr	Bragg Creek	Alberta	T0L 0C5	Canada	51.0966124	-114.0038148	15878971731	https://braggcreekdistillers.ca/	AB	AB
osm:way:1034389675	Piston Broke Brewing	micro	350 9 Street East	Brooks	Alberta	T1R 1K6	Canada	50.5662488	-111.8785714		https://www.pistonbrokebrewing.com/	AB	AB
google:ChIJz474nMRxcVMRIHR2dgwpihc	33 Acres Brewing Company Calgary	micro	224 12 Ave SW	Calgary	Alberta	T2R 0H2	Canada	51.04225150000001	-114.0674028		http://33acresbrewing.com/	AB	AB
google:ChIJCyHOv2JxcVMRJRu3_bZeQOE	BSB Brewing	micro	140 10 Ave SW	Calgary	Alberta	T2R 0A3	Canada	51.0436825	-114.0650951		http://www.bottlescrewbill.com/bsb-brewing	AB	AB
google:ChIJPXZwbW1wcVMR-xJz9YVu8cw	Banded Peak Brewing	micro	#119	Calgary	Alberta	T2G 1V1	Canada	51.0228213	-114.0515215		http://www.bandedpeakbrewing.com/	AB	AB
google:ChIJscQRBQdxcVMRjOxKeauuE9Y	Bitter Sisters Brewing Co.	micro	510 Heritage Dr SW	Calgary	Alberta	T2V 0T3	Canada	50.9802241	-114.0757637		http://www.bittersisters.co/	AB	AB
google:ChIJiVqqfB96cVMRJQLJGFq5EJw	Boiling Oar Brewing Company	micro	7930 51 St SE	Calgary	Alberta	T2C 4R2	Canada	50.9816865	-113.959561		http://www.boilingoar.com/	AB	AB
google:ChIJ1XXm-VN7cVMRLPoaPp7Aq24	Bored Brewing Taproom & Clubhouse	micro	1212 9 Ave SE	Calgary	Alberta	T2G 0T1	Canada	51.042172	-114.0359142		https://boredbrewing.xyz/	AB	AB
google:ChIJk4mZ8GxwcVMRCyvUvugcdBY	Born Brewing Co.	micro	414 36 Ave SE #3	Calgary	Alberta	T2G 1W4	Canada	51.0216589	-114.0543515		http://www.bornbrewing.co/	AB	AB
google:ChIJY2Drp2RxcVMRifk4jw8kg0Y	Bow River Brewing	micro	5769 4 St SE #110	Calgary	Alberta	T2H 0P4	Canada	51.002776	-114.0542542		http://www.bowriverbrewing.ca/	AB	AB
google:ChIJ45YoXwBvcVMR13qVqmXAERc	Brewsmith Brewing Company	micro	6311 Bowness Rd NW #110	Calgary	Alberta	T3B 0E5	Canada	51.0849712	-114.1790762		https://www.brewsmithbrewing.ca/	AB	AB
osm:way:569425341	Brewsters	brewpub	11 McKenzie Towne Avenue SE	Calgary	Alberta	T2Z 0S8	Canada	50.9167873	-113.9615548		http://brewsters.ca/	AB	AB
google:ChIJ29OPlM5xcVMR6KIjLwnvpiY	Buffalo 9 Brewing Co.	micro	2801 24a St SW	Calgary	Alberta	T3E 1W4	Canada	51.0297565	-114.11964		https://www.buffalo9brewing.com/	AB	AB
google:ChIJr0Pnjh5xcVMRRziIgLSUyXA	Cabin Brewing Company	micro	505 36 Ave SE	Calgary	Alberta	T2G 1W5	Canada	51.0212065	-114.0535917		http://www.cabinbrewing.ca/	AB	AB
osm:way:1338554246	Citizen Brewing Company	micro	227 35 Avenue NE	Calgary	Alberta	T2E 2K5	Canada	51.0838868	-114.0584341		https://citizenbrewingcompany.com/	AB	AB
osm:way:646521013	Cold Garden Beverage Company	micro	1100 11 Street SE	Calgary	Alberta	T2G 4T3	Canada	51.0395202	-114.0367349		https://www.coldgarden.ca/	AB	AB
google:ChIJV1IIKNV7cVMRtde-j4kXbw8	Eighty-Eight Brewing Co.	micro	2600 Portland St SE #1070	Calgary	Alberta	T2G 4M6	Canada	51.03079140000001	-114.0321167		https://www.eightyeightbrewing.ca/	AB	AB
google:ChIJc3fbDBlwcVMR2tE6p7CYTWI	Fleur de Sel Brasserie	micro	2015 4 St SW #2	Calgary	Alberta	T2S 1W6	Canada	51.0344972	-114.0717403		http://www.fleurdeselbrasserie.com/	AB	AB
google:ChIJYRE407BxcVMRAoUPLarWlho	Four Dogs Brewing Company	micro	1205 1 St SW	Calgary	Alberta	T2R 0V3	Canada	51.0412723	-114.0661294		https://fourdogs.ca/	AB	AB
google:ChIJYyrelK96cVMRNxdJiM1_1bU	High Line Brewing	micro	1318 9 Ave SE #113	Calgary	Alberta	T2G 0T3	Canada	51.04105879999999	-114.0327785		http://www.highlinebrewing.com/	AB	AB
google:ChIJtykfE-JvcVMRnIyX8rpE7RE	Last Best Brewing & Distilling	micro	607 11 Ave SW	Calgary	Alberta	T2R 0E1	Canada	51.0426013	-114.0745733		http://lastbestbrewing.com/	AB	AB
osm:node:12965371605	Le La Vietnamese Restaurant	micro	6624 Centre Street SE, Unit 4	Calgary	Alberta	T2H 0C6	Canada	50.9950745	-114.0634293		https://lelavietnamese.com	AB	AB
google:ChIJTYr60gZlcVMRnREYFHd0jCc	Minhas Brewery, Distillery, Tap Room & Kitchen	micro	1314 44 Ave NE	Calgary	Alberta	T2E 6L6	Canada	51.0921288	-114.0315166		https://www.minhasbrewery.ca/	AB	AB
google:ChIJ7WWsnPtwcVMRpMIt_eFJC18	New Level Brewing	micro	7005 Fairmount Drive Southeast, Unit 4140	Calgary	Alberta	T2H 0J1	Canada	50.9920082	-114.065628	14037644359	http://newlevelbrewing.ca/	AB	AB
google:ChIJD8KjKORlcVMR6HKCf5CbS7Q	Origin Malting & Brewing - Calgary	micro	943 28 St NE	Calgary	Alberta	T2A 2M4	Canada	51.0611523	-113.9940515		https://originbrewing.ca/	AB	AB
google:ChIJmyopa1hwcVMRGM7hPwIc854	Prairie Dog Brewing	micro	105D 58 Ave SE	Calgary	Alberta	T2H 0N8	Canada	51.0009777	-114.0633808		https://prairiedog.bbq.beer/	AB	AB
google:ChIJw65msqlmcVMRZ9zKN8JvqV8	Railyard Brewing	micro	10301 19 St NE Unit 121	Calgary	Alberta	T3J 0P7	Canada	51.1455621	-114.0141119		http://www.railyardbrewing.ca/	AB	AB
google:ChIJedyLEUdxcVMRLJtV-_PaapQ	South Block Barbecue & Brewing Co.	micro	2437 4 St SW	Calgary	Alberta	T2S 1X5	Canada	51.030729	-114.0717718		http://www.southblockbbq.com/	AB	AB
google:ChIJ_T5WWylxcVMRv5S0fljXfeY	Stonyslope Brewing Company	micro	9620 Elbow Dr SW #20	Calgary	Alberta	T2V 1M2	Canada	50.9690128	-114.0839338		http://stonyslopebrewing.com/	AB	AB
google:ChIJI0Fh0qtvcVMREpegfLiHTko	Tailgunner Brewing & Acme Pizza Co	micro	1602 10 Ave SW	Calgary	Alberta	T3C 0J8	Canada	51.044514	-114.0969727		https://www.tailgunnerbrewing.ca/	AB	AB
osm:node:10021849113	Tailgunner Brewing Company & Acme Pizza Co.	brewpub	1602 10 Avenue SW	Calgary	Alberta	T3C 0J8	Canada	51.0445135	-114.096828		https://www.tailgunnerbrewing.ca	AB	AB
osm:node:10245759923	Tavern 52	micro	1830 52 Street SE, Unit 110	Calgary	Alberta	T2B 1N1	Canada	51.0369465	-113.957732		http://www.tavern52.ca/	AB	AB
google:ChIJWZt2En1mcVMRu_gECfJu9QM	The Canadian Brewhouse (Calgary Harvest Hills)	micro	9650 Harvest Hills Blvd N #1200	Calgary	Alberta	T3K 2M3	Canada	51.1405492	-114.0703446		https://thecanadianbrewhouse.com/locations/calgary/#harvest-hills	AB	AB
google:ChIJSQcIouN3cVMRZZQb7CYrBtE	The Canadian Brewhouse (Calgary Mahogany)	micro	7 Mahogany Plaza SE #700	Calgary	Alberta	T3M 2P8	Canada	50.8985488	-113.9434873		https://thecanadianbrewhouse.com/locations/calgary/#mahogany	AB	AB
google:ChIJJ63TJG97cVMRrNx38ou3PZY	The Canadian Brewhouse (Calgary Northgate)	micro	425 36 St NE	Calgary	Alberta	T2A 7S9	Canada	51.0550499	-113.9826329		https://thecanadianbrewhouse.com/locations/calgary/#northgate	AB	AB
google:ChIJqbwMe8tvcVMRimMB39Gv1-8	The Canadian Brewhouse (Calgary University District)	micro	3953 University Ave NW #220	Calgary	Alberta	T3B 6K3	Canada	51.0780974	-114.1453265		https://thecanadianbrewhouse.com/locations/calgary/#university-district	AB	AB
osm:way:615400241	The Dandy Brewing Company and DandyPizza	micro	2003 11 Street SE	Calgary	Alberta	T2G 3G6	Canada	51.0351279	-114.0371021		https://thedandybrewingcompany.com/	AB	AB
osm:way:786216103	The Establishment Brewing Company	micro	4407 1 Street SE	Calgary	Alberta	T2G 2L2	Canada	51.014291	-114.0624917		http://establishmentbrewing.ca/	AB	AB
osm:node:1809357832	The Wednesday Room	micro	118 8 Avenue SW, Unit 100	Calgary	Alberta	T2P 1B3	Canada	51.0457034	-114.064102		https://wednesdayroom.com/	AB	AB
osm:way:504504137	Trolley 5	brewpub	728 17 Avenue SW	Calgary	Alberta	T2S 0B7;T2T 4M2	Canada	51.0380863	-114.078447		https://trolley5.com/	AB	AB
google:ChIJg2ThvNdvcVMR2Pxq-hs7KOU	Trolley 5 Brewpub	brewpub	728 17 Ave SW	Calgary	Alberta	T2S 0B7	Canada	51.0379494	-114.0785249		http://www.trolley5.com/	AB	AB
google:ChIJSUzvWoBvcVMREQ8vhZxiVK8	Tuesday Brewing	micro	638 11 Ave SW Unit 305	Calgary	Alberta	T2R 0E2	Canada	51.0430052	-114.0761322		http://www.tuesdaybrewing.com/	AB	AB
osm:way:518051662	Two House Brewing	brewpub	1901 10 Avenue SW	Calgary	Alberta	T3C 0K3	Canada	51.0442163	-114.1044242		https://www.twohousebrew.com/	AB	AB
google:ChIJ8UTT0zZvcVMREUpdBDfcqXM	Two House Brewing Taproom + Pizza	micro	1901 10 Ave SW	Calgary	Alberta	T3C 0K3	Canada	51.04422169999999	-114.1043732		https://www.twohousebrew.com/	AB	AB
osm:node:8795934726	Two Pillars Brewery	micro	910 Centre Street N	Calgary	Alberta	T2E 2P7	Canada	51.0601251	-114.0623455		https://www.twopillars.ca/menu	AB	AB
osm:node:12898021338	Uncommon Cider	micro	3921 Manchester Road SE	Calgary	Alberta	T2G 4A1	Canada	51.0187878	-114.0597592		https://uncommoncider.com/	AB	AB
google:ChIJNb8j5nxwcVMR_4QFKWqXSHs	Village Brewery	micro	5000 12a St SE	Calgary	Alberta	T2G 5K9	Canada	51.0094489	-114.0349531		http://www.villagebrewery.com/	AB	AB
osm:node:4993279227	Wild Rose Brewery	micro	5505 72 Avenue SE	Calgary	Alberta	T2C 3C4	Canada	50.9888572	-113.9507979		http://www.wildrosebrewery.com/	AB	AB
osm:node:9535669403	Wild Rose Brewery & Tap Room	brewpub	4580 Quesnay Wood Drive SW	Calgary	Alberta	T3E 7J3	Canada	51.0145625	-114.122834		https://www.wildrosebrewery.com/tap-room/	AB	AB
osm:node:10693607631	Zero Issue Brewing	micro	4219 12 Street NE	Calgary	Alberta	T2E 6K9	Canada	51.0893838	-114.0316126		https://www.zeroissuebeer.com/	AB	AB
osm:way:1229837329	The Twisted Lizard	micro	103 9 Avenue	Carstairs	Alberta	T0M 0N0	Canada	51.5661232	-114.0985256		http://www.thetwistedlizard.ca/	AB	AB
osm:way:1039033473	Valley Brewing	micro	242 3 Avenue West	Drumheller	Alberta	T0J 0Y4	Canada	51.4639744	-112.7114653		http://www.valleybrewing.ca/	AB	AB
osm:way:1039007362	Ribstone Creek Brewery	micro	4924 51 Street	Edgerton	Alberta	T0B 1K0	Canada	52.7599562	-110.4622127		http://ribstonecreekbrewery.ca/	AB	AB
google:ChIJ6QjqTt4joFMR7AnTmMcd5Rw	Ale Architect Brewery & Taproom	micro	9918 76 Ave NW	Edmonton	Alberta	T6E 1K7	Canada	53.5124541	-113.4870463		http://alearchitect.com/	AB	AB
osm:node:3937065619	Alley Kat Brewery	micro	9929 60 Avenue NW	Edmonton	Alberta	T6E 0C7	Canada	53.4952476	-113.4879891		https://www.alleykatbeer.com/	AB	AB
google:ChIJweghebEYoFMRocp_6Ndq7Gg	Alley Kat Brewing Company	micro	9929 60 Ave NW	Edmonton	Alberta	T6E 0C7	Canada	53.4952781	-113.4881278		http://www.alleykatbeer.com/	AB	AB
google:ChIJj0hTWEIZoFMR-Zx0iXs6KYE	Analog Brewing Company	micro	8620 53 Ave NW	Edmonton	Alberta	T6E 5E9	Canada	53.4906162	-113.4564435		http://www.analogbrewing.ca/	AB	AB
google:ChIJyYiVBtAjoFMR6y2knKbZjOU	Arcadia Brewing Co.	micro	10712 120 St NW	Edmonton	Alberta	T5H 0W7	Canada	53.5513114	-113.5295181		http://arcadiabrewing.ca/	AB	AB
osm:way:322920664	Bent Stick Brewing Co.	micro	9926 78 Avenue NW	Edmonton	Alberta	T6E 1N5	Canada	53.5144939	-113.4873909		http://www.bentstickbrewing.com/	AB	AB
google:ChIJE6bOLIEjoFMRpbzL_Afdc0E	Blind Enthusiasm Brewing Company - The Monolith	micro	9919 78 Ave NW	Edmonton	Alberta	T6E 1N6	Canada	53.51412879999999	-113.4872054		http://www.blindenthusiasm.ca/	AB	AB
google:ChIJU6qoujkloFMRCyPDKh6N8Ok	Brew and Bloom - Downtown	micro	10550 115 St NW	Edmonton	Alberta	T5H 3K6	Canada	53.5489587	-113.5197721		https://www.brewandbloom.ca/	AB	AB
google:ChIJxYW8oBMfoFMR7wDjLUbvMsk	Brew and Bloom - South	micro	1019 Parsons Rd SW	Edmonton	Alberta	T6X 0X2	Canada	53.4230293	-113.4785445		https://brewandbloom.ca/	AB	AB
google:ChIJ38vIkjIioFMRr88QSn1kbT8	Brewsters Brewing Company and Restaurant - Unity Square	micro	11736 104 Ave NW	Edmonton	Alberta	T5K 2P3	Canada	53.5465353	-113.5235986		http://brewsters.ca/	AB	AB
google:ChIJ4Rn8CwAjoFMR2LYMG97Szaw	Campio Brewing	micro	9570 76 Ave NW	Edmonton	Alberta	T6C 0K2	Canada	53.51253879999999	-113.4763867		https://campiobrewingco.com/	AB	AB
google:ChIJIYeaiLQjoFMR7Md7EtbDTBQ	Campio Brewing Co.	micro	10257 105 St NW	Edmonton	Alberta	T5J 1E3	Canada	53.5442303	-113.5008297		http://www.campiobrewingco.com/	AB	AB
google:ChIJYcaCMi0ioFMROKscFiiqXM0	Edmonton Brewery District	micro	12060 104 Ave NW	Edmonton	Alberta	T5K 0T3	Canada	53.54676509999999	-113.5286739		https://www.brewerydistrictedmonton.ca/	AB	AB
google:ChIJ682mclUjoFMRBOQAGRMzI7E	Irrational Brewing Company	micro	10643 124 St #109	Edmonton	Alberta	T5N 1S5	Canada	53.5506737	-113.535568		https://www.irrationalbrewing.ca/	AB	AB
google:ChIJA2Uln6cYoFMROTOTxF0ihng	Longroof Brewing Co.	micro	9916 72 Ave NW #104	Edmonton	Alberta	T6E 0Z3	Canada	53.5088314	-113.4871283		http://www.longroofbrewing.ca/	AB	AB
osm:node:12647269806	Nest at NAIT	micro	11762 106 Avenue NW, Unit S110	Edmonton	Alberta	T5G 3H6	Canada	53.566541	-113.5055078		https://nestatnait.ca	AB	AB
google:ChIJC216GD0joFMRWJHcmnJHAcQ	Odd Company Brewing	micro	9959 76 Ave NW	Edmonton	Alberta	T6E 1K8	Canada	53.5120643	-113.4883152		http://www.oddcompany.ca/	AB	AB
google:ChIJE2ugMe4ZoFMRm2cOiIg5yJ4	Omen Brewing	micro	9942 67 Ave NW	Edmonton	Alberta	T6E 0P5	Canada	53.5043656	-113.4888805		http://omenbrewing.com/	AB	AB
google:ChIJq6paPUofoFMRsSCE8WG10F8	Polyrhythm Brewing	micro	11635 145 St NW	Edmonton	Alberta	T5M 1V9	Canada	53.5690611	-113.5699536		http://www.polyrhythmbrewing.com/	AB	AB
google:ChIJ2_o7BBQhoFMRQeXYDH9KEtI	SYC Brewing Co	micro	11239 180 St NW	Edmonton	Alberta	T5S 0B4	Canada	53.5612036	-113.6290666		http://www.sycbrewing.com/	AB	AB
osm:node:5892975821	Sea Change Brewing Co.	micro	9850 62 Avenue NW	Edmonton	Alberta	T6E 0E3	Canada	53.4985931	-113.4851593		https://www.seachangebeer.com/	AB	AB
google:ChIJVbhkNQAZoFMR1K9NcB9sCF8	Southbound Brewing	micro	9943 69 Ave NW	Edmonton	Alberta	T6E 0T1	Canada	53.5054838	-113.4879116			AB	AB
google:ChIJ9ZBdMh0joFMRVHnwzn3vwEs	The Bell in Scona Brewery	micro	10416 80 Ave NW	Edmonton	Alberta	T6E 5T7	Canada	53.51634439999999	-113.4987187		http://bellinsconabrewery.com/	AB	AB
google:ChIJAeR90DUioFMRYorUM3RbhNs	The Canadian Brewhouse (Edmonton Downtown)	micro	10338 109 St NW	Edmonton	Alberta	T5J 4X9	Canada	53.5457976	-113.5099164		https://thecanadianbrewhouse.com/locations/edmonton/#downtown	AB	AB
google:ChIJ84LwsJ4eoFMRj7yw0rdmM-A	The Canadian Brewhouse (Edmonton Ellerslie)	micro	9538 Ellerslie Road Southwest	Edmonton	Alberta	T6X 0K6	Canada	53.4257036	-113.4785873	17804692232	https://thecanadianbrewhouse.com/locations/edmonton/#ellerslie	AB	AB
google:ChIJHY9Xa3EjoFMRWAAq5JTnbh4	The Canadian Brewhouse (Edmonton North)	micro	12711 97 St NW	Edmonton	Alberta	T5E 4C1	Canada	53.58546	-113.49084		https://thecanadianbrewhouse.com/locations/edmonton/#north	AB	AB
google:ChIJb83cWJgeoFMR3DdDhqdO_p4	Town Square Brewing Co.	micro	2919 Ellwood Dr SW	Edmonton	Alberta	T6X 1N4	Canada	53.42901639999999	-113.4785563		http://www.townsquarebrewing.com/	AB	AB
google:ChIJf91sblEhoFMRwSPuUatVjWw	Trial & Ale Brewing Company Inc.	micro	17850 106a Ave NW Suite 100	Edmonton	Alberta	T5S 1V8	Canada	53.5517571	-113.6296765		https://www.mixedfermentation.com/	AB	AB
google:ChIJyeZbQGsjoFMRc13NDy8Y5v0	Yeasty Boys Brewing	micro	9951 78 Ave NW	Edmonton	Alberta	T6E 1N6	Canada	53.51391229999999	-113.4882706		https://yeastyboysbrewing.ca/	AB	AB
osm:way:580249710	Apex Predator Brewing	micro	53527 Range Rd 181A	Edson	Alberta	T7E 3T7	Canada	53.6262405	-116.5340572		https://apexpredatorbrewing.com/	AB	AB
osm:node:7234389724	57 North Kitchen + Brewery	micro	9914 Morrison Street	Fort Mcmurray	Alberta	T9H 4A4	Canada	56.7290886	-111.3859905			AB	AB
osm:node:7567933093	The Fort Distillery	brewpub	8818 111 Street, Unit 128	Fort Saskatchewan	Alberta	T8L 3T4	Canada	53.7037472	-113.2001008		http://www.thefortdistillery.com/	AB	AB
osm:way:1039060750	Grain Bin Brewing Company	micro	11707 97 Avenue, Unit 101	Grande Prairie	Alberta	T8W 0M1	Canada	55.1668036	-118.8517886		http://www.grainbinbeer.com/	AB	AB
osm:way:1039005273	High River Brewing Company	micro	510G 21 Street SE	High River	Alberta	T1V 2A7	Canada	50.5773785	-113.8331879		https://hrbrewco.com/	AB	AB
osm:way:1035014335	Dark Woods Brewing & Coffee Roasting	micro	4720 50 Street	Innisfail	Alberta	T4G 1P8	Canada	52.0279489	-113.943742		http://darkwoodsbrewing.com/	AB	AB
osm:way:272514111	Jasper Brewing Company	brewpub	624 Connaught Drive	Jasper	Alberta	T0E 0A8	Canada	52.8746517	-118.0812267		http://jasperbrewingco.ca/	AB	AB
osm:way:1125224810	Folding Mountain Brewery	brewpub	49321 Folding Mountain Village	Jasper East	Alberta	T7V 1X3	Canada	53.2446199	-117.7805804	17808176287	https://foldingmountain.com	AB	AB
osm:way:1039063364	Fat Unicorn Brewery	micro	Box 570 103-9024 94 Avenue	Lac La Biche	Alberta	T0A 2C0	Canada	54.7648067	-111.9559192		http://www.fubrew.com/	AB	AB
osm:way:503661638	Blindman Brewing	brewpub	3413 53 Avenue, Unit Bay F	Lacombe	Alberta	T4L 0C6	Canada	52.4669278	-113.7045332		https://www.blindmanbrewing.com/	AB	AB
osm:node:11298593006	4th Meridian Brewing Company	brewpub	2626 50 Avenue, Unit 6	Lloydminster	Alberta	T9V 2S3	Canada	53.2613307	-110.0076179		https://www.4thmeridianbrewing.com/	AB	AB
osm:way:542466813	Oldman River Brewing	micro	101 Beckenridge Avenue	Lundbreck	Alberta	T0K 1H0	Canada	49.5869826	-114.1622089		http://www.oldmanriverbrewing.com/	AB	AB
osm:way:1024472489	Hell's Basement Brewery Inc.	micro	552 18 Street Southwest	Medicine Hat	Alberta	T1A 8A7	Canada	50.0219515	-110.698086		http://www.hellsbasement.com/	AB	AB
osm:way:552507233	Medicine Hat Brewing Company	micro	1366 Brier Park Drive Northwest	Medicine Hat	Alberta	T1C 1Z7	Canada	50.0620763	-110.7177444		http://www.medicinehatbrewingcompany.ca/	AB	AB
osm:way:1035004759	Hub Town Brewing	micro	41 Elizabeth Street	Okotoks	Alberta	T1S 1M3	Canada	50.725323	-113.977781		http://www.hubtownbrewing.com/	AB	AB
osm:way:1034443626	Siding 14 Brewing Company	micro	3520 67 Street	Ponoka	Alberta	T4J 1J8	Canada	52.6643229	-113.6067817		https://www.siding14gallery.com/	AB	AB
osm:way:453769427	Belly Hop Brewing	micro	8105 Edgar Industrial Drive	Red Deer	Alberta	T4P 3R2	Canada	52.3152851	-113.8420794		http://www.bellyhopbrewing.com/	AB	AB
osm:way:453542032	Sawback Brewing Co.	micro	7023 Johnstone Drive	Red Deer	Alberta	T4P 0L9	Canada	52.2949372	-113.8492153		http://www.sawbackbrewery.ca/	AB	AB
osm:way:1035018802	Troubled Monk	micro	5551 45 Street	Red Deer	Alberta	T4N 1L2	Canada	52.2646669	-113.8264785		http://www.troubledmonk.com/	AB	AB
osm:way:632605577	Dog Island Brewing	micro	250 Caribou Trail SW	Slave Lake	Alberta	T0G 2A0	Canada	55.2831925	-114.7937946		https://dogislandbrewing.com/?utm_source=google&utm_medium=wix_google_business_profile&utm_campaign=5436488780190970818	AB	AB
osm:way:1035010101	Snake Lake Brewing Company	micro	26 Industrial Drive	Sylvan Lake	Alberta	T4S 1P5	Canada	52.3162047	-114.0695834		https://snakelake.beer/	AB	AB
osm:way:539534659	Water Valley Saloon	micro	5210 Main St. Highway 579	Water Valley	Alberta	T0M 2E0	Canada	51.5041809	-114.6131652		http://watervalleysaloon.pub/	AB	AB
osm:node:13134363200	33 Acres Brewing	micro	224 12 Avenue SW, Unit 120		Alberta	V5Y 1M8	Canada	51.042229	-114.0674087		https://33acresbrewing.com/	AB	AB
osm:node:9950203116	70 Acre Brewing	brewpub	6000 Buckingham Dr #310		Alberta	T8H 1A2	Canada	53.5514476	-113.3133881		https://70acre.com/	AB	AB
osm:node:13070051830	Ale Architect Brewery & Taproom	micro	9918 76 Avenue North-west		Alberta	T6E 1K7	Canada	53.5124461	-113.4870402		https://www.alearchitect.com	AB	AB
osm:way:1329303469	Annex Ale Project	micro	4323 1 Street SE		Alberta	T2G 2L2	Canada	51.0147804	-114.0622991		https://www.annexales.com/	AB	AB
osm:way:721062051	Banded Peak Brewing	micro	519 #119 34 Avenue SE		Alberta	T2G 1V1	Canada	51.0228626	-114.0517509		http://brandedpeakbrewing.com	AB	AB
osm:node:10131446494	Bar Annabelle	micro	109 8 Avenue SW, Unit A		Alberta	T2P 1B4	Canada	51.0454567	-114.063687		https://www.annabelleskitchen.ca/bar-annabelle/?utm_source=google&utm_medium=gmb	AB	AB
osm:node:13136772193	Best of Kin	micro	1059 14 Street SW		Alberta	T3C 3T5	Canada	51.0436066	-114.0950102		https://www.bestofkin.ca/	AB	AB
osm:way:484162804	Bitter Sisters	brewpub	510 Heritage Drive SW		Alberta	T2V 2W2	Canada	50.9802181	-114.0756958		https://bittersisters.co/	AB	AB
osm:node:4955682059	Blind Enthusiasm	micro	9919 78 Ave NW		Alberta	T6E 1N6	Canada	53.5124767	-113.4765098		http://www.blindenthusiasm.ca/	AB	AB
osm:node:9552801978	Born Brewing Co.	micro	414 36 Avenue SE		Alberta	T2G 1W4	Canada	51.0216442	-114.0543518		https://bornbrewing.co/	AB	AB
osm:way:436581553	Bow River Brewing	micro	5769 4 Street SE, Unit 110		Alberta	T2H 0P4	Canada	51.0026656	-114.0544567		http://www.bowriverbrewing.ca/	AB	AB
osm:node:6589780987	Cabin Brewing Company	micro	505 36 Avenue SE		Alberta	T2G 1W5	Canada	51.0212126	-114.053716		https://www.cabinbrewing.ca/	AB	AB
osm:node:11565501598	Detention Brewing	micro	Box 126		Alberta	T0B 2K0	Canada	52.7865241	-112.446512		https://www.detentionbrewing.ca/	AB	AB
osm:node:12459817226	Evil Corporation Brewing	micro	1220 20 Avenue SE		Alberta	T2G 1M8	Canada	51.0360585	-114.0360715		https://evilcorpbrewing.com/	AB	AB
osm:node:13115276752	Four Dogs Brewing	micro	1205 1 Street SW		Alberta	T2R 0V3	Canada	51.0412765	-114.0660335		https://www.fourdogs.ca/	AB	AB
osm:node:12027830533	Hagar's Café	brewpub	6505 48 Ave		Alberta	T4V 4R3	Canada	53.0167611	-112.8541153		https://www.norsemeninn.com/dining-brewery/hagar-s-cafe	AB	AB
osm:way:633161259	Half Hitch Brewing Company	micro	10 Griffin Industrial Point #1		Alberta	T4C 0A2	Canada	51.183525	-114.453695		http://www.halfhitchbrewing.ca/	AB	AB
osm:way:1050399690	Hard Knox Brewery	micro	445 1 Avenue NE (Between Tim's and Rona		Alberta	T0L 0H0	Canada	50.6888217	-114.2246215		https://hardknoxbrewery.com/	AB	AB
osm:way:1107235063	Hawk Tail Brewery	micro	6311 52 Street		Alberta	T0C 2J0	Canada	52.65229	-114.2425797		https://hawktailbrewery.com/	AB	AB
osm:way:1296977557	Journey North Cider Co.	micro	60518 AB-28		Alberta	T9N 2H3	Canada	54.2323485	-110.832448		http://www.journeynorth.ca/	AB	AB
osm:node:5667537123	Last Best Brewing & Distilling	brewpub	607 11 Avenue SW		Alberta	T2R 0E1	Canada	51.0424634	-114.0746666		https://lastbestbrewing.com/	AB	AB
osm:node:7310618540	Marda Loop Brewing	brewpub	3523 18 Street SW		Alberta	T2T 4T9	Canada	51.0223523	-114.1050889		https://www.mardaloopbrewing.com/	AB	AB
osm:node:12027830522	Norsemen Brewing Co.	micro	11 Ritchie Dr		Alberta	P0G 1G0	Canada	53.0167176	-112.8537633		http://norsemenbrewing.com/	AB	AB
osm:node:12027830521	Odin Dining Room	brewpub	706 Union St		Alberta	V0G 1S1	Canada	53.0167583	-112.8539403		https://valhallainn.biz/odins-pub/	AB	AB
osm:node:12097444299	Ol' Beautiful Brewing Company	micro	4025 9 Avenue SE		Alberta	T2G 3H7	Canada	51.0186262	-114.041124		https://www.olbeautiful.com/	AB	AB
osm:node:4603252856	Olds College Teaching Brewery	micro	4601 46 Ave		Alberta	T4H 1X6	Canada	51.7940109	-114.0951132		http://www.ocbeer.ca/	AB	AB
osm:way:489848006	Oxford Airport Business Park Building D	micro	10301 19 Street NE		Alberta	T3J 0R1	Canada	51.1458076	-114.0144093		https://www.oxfordproperties.com/leasing/en/industrial/property/oxford-airport-businesspark-d1/	AB	AB
osm:node:818389834	Polar Park Brewing Co.	brewpub	11039 83 Ave NW #213		Alberta	T6G 2V6	Canada	53.5162406	-113.4985654		https://www.polarparkbrewing.com/	AB	AB
osm:node:6589780885	Prairie Dog Brewing	brewpub	105 58 Avenue SE, Unit D		Alberta	T2H 0N8	Canada	51.0009318	-114.0633714		https://www.prairiedogbrewing.ca/	AB	AB
osm:node:12385503732	Spectrum Ale Works	micro	3500 9 Avenue N		Alberta	T1H 5E6	Canada	49.7123217	-112.7905883		http://www.spectrumaleworks.com/	AB	AB
osm:node:11563447520	Stonyslope Brewing Company	micro	9620 Elbow Drive SW		Alberta	T2V 1M2	Canada	50.969042	-114.0838756		https://www.stonyslope.com	AB	AB
osm:node:9042617562	Sturgeon Brewing Company	brewpub	9918 100 St #101a		Alberta	T8R 1K8	Canada	53.8007951	-113.6452599		http://sturgeonbrewing.beer/	AB	AB
osm:node:9643818684	The Canadian Brewhouse	brewpub	3953 University Ave NW #220		Alberta	T3B 6K3	Canada	50.8646986	-114.030383		https://thecanadianbrewhouse.com/locations/calgary/#university-district	AB	AB
osm:node:12027830535	The Gravity Lounge	brewpub	909 10 St SE		Alberta	T2G 0S7	Canada	53.0169213	-112.853945		https://www.norsemeninn.com/dining-brewery/the-gravity-lounge	AB	AB
osm:way:362080641	The Grizzly Paw Pub & Brewing Company	brewpub	310 Old Canmore Road		Alberta	T1W 2B5	Canada	51.0885828	-115.3450737		https://www.thegrizzlypaw.com/	AB	AB
osm:node:12249723860	The Mash	brewpub	1126 Kensington Road NW, Unit 4		Alberta	T2N 3P3	Canada	51.0527122	-114.0878514		https://www.masheats.ca/	AB	AB
osm:way:563931929	The Trop	micro	1501 34 Avenue SW		Alberta	T2T 2B1	Canada	51.0230495	-114.0951309		https://www.thetropyyc.com/	AB	AB
osm:way:380313131	Tommyfield Gastro Pub	micro	19489 Seton Crescent SE #920		Alberta	T3M 1T4	Canada	50.8797417	-113.9590083		http://tommyfieldgastropub.com/	AB	AB
osm:node:8988572968	Travois Ale Works	micro	612 3rd street		Alberta	T1A 0H5	Canada	50.0399714	-110.6753431		https://www.travoisbeer.com/	AB	AB
osm:node:7129721967	Waldhaus Pub & Biergarten	brewpub	405 Spray Ave		Alberta	T1L 1J4	Canada	51.1642365	-115.5589858		https://www.fairmont.com/banff-springs/dining/waldhauspub/	AB	AB
osm:way:551479731	Steamworks Brewery and Tap Room	brewpub	3845 William Street	Burnaby	British Columbia	V5C 3J1	Canada	49.2741582	-123.0199801		https://steamworks.com/the-brewery/	BC	BC
osm:node:7295167151	Beach Fire Brewing Company	micro	594 11th Avenue	Campbell River	British Columbia	V9W 4G4	Canada	50.0263595	-125.248219		https://www.beachfirebrewing.ca	BC	BC
osm:node:11069733189	Sidekick Brewing	brewpub	45530 Vedder Mountain Road, Unit 106	Chilliwack	British Columbia	V2R 4C3	Canada	49.0965609	-121.964564		https://www.sidekickbrewing.com/	BC	BC
osm:node:6577868451	Ace Brewing Company	micro	150 Mansfield Drive	Courtenay	British Columbia	V9N 6C5	Canada	49.67797	-124.981923		https://acebrewing.ca/	BC	BC
osm:node:13042234140	Casey's Community House	micro	1136 Canyon Street	Creston	British Columbia	V0B 1G4	Canada	49.0956878	-116.5107109		https://caseyscommunityhouse.ca	BC	BC
osm:node:13092763089	Jimmy's Pub & Grill	micro	1418 Canyon Street	Creston	British Columbia	V0B 1G4	Canada	49.0957137	-116.5089547		https://www.crestonhotel.com/jimmys-pub-grill	BC	BC
osm:way:1424429600	Kokanee Pub	micro	123 9th Avenue South	Creston	British Columbia	V0B 1G3	Canada	49.0949953	-116.5151618		https://www.kokaneepub.com/	BC	BC
osm:way:908945015	Wild North Brewing Co.	micro	125 16 Avenue North	Creston	British Columbia	V0B 1G5	Canada	49.0962087	-116.5072134		https://wildnorthbrewery.ca/	BC	BC
osm:way:475564189	The Cumberland Brewing Company	micro	2732 Dunsmuir Avenue	Cumberland	British Columbia	V0R 1S0	Canada	49.619242	-125.0280936		https://cumberlandbrewing.com/	BC	BC
google:ChIJv2qlmGvfhVQRgFImVfipGog	Barnside Brewing Co.	micro	6655 60 Avenue	Delta	British Columbia	V4K 4E2	Canada	49.112188	-123.038948	17784342264	http://www.barnsidebrewing.ca/	BC	BC
google:ChIJZRCfNqzfhVQRnZQLx8RuhhU	Four Winds Brewing Co. Taproom & Taco Shop	micro	4-7355 72 Street	Delta	British Columbia	V4G 1L5	Canada	49.1362321	-123.0270146	16049409949	https://fourwindsbrewing.ca/pages/taproom-and-kitchen	BC	BC
osm:way:623043001	Kennedy's Pub	brewpub	11906 88 Avenue	Delta	British Columbia	V4C 3C8	Canada	49.1629713	-122.8930031		http://www.kennedyssportspub.com/	BC	BC
osm:way:827891680	Ursa Minor Brewing	micro	452459 Ootsa Lake Road	East Burns Lake	British Columbia	V0J 1E0	Canada	53.7007928	-125.7307259		https://www.ursaminorbrewing.ca/	BC	BC
osm:node:12808987743	Banditry Cider	micro	538 Pratt Road	Gibsons	British Columbia	V0N 1V4	Canada	49.4029187	-123.5292678		https://www.banditrycider.com/	BC	BC
osm:way:619958024	Gibsons Tapworks	micro	537 Cruice Lane	Gibsons	British Columbia	V0N 1V9	Canada	49.4027749	-123.5048225		https://www.gibsonstapworks.com/	BC	BC
osm:way:592553605	Persephone Brewing	micro	1053 Stewart Road	Gibsons	British Columbia	V0N 1V7	Canada	49.4207588	-123.5082391		https://www.persephonebrewing.com/	BC	BC
osm:way:619947527	The 101 Brewhouse + Distillery	micro	1009 Gibsons Way	Gibsons	British Columbia	V0N 1V7	Canada	49.4063595	-123.525621		https://the101.ca/	BC	BC
osm:way:124948126	Red Collar Brewing	micro	355 Lansdowne Street	Kamloops	British Columbia	V2C 1X9	Canada	50.6764475	-120.3327788		https://www.redcollar.ca/	BC	BC
osm:node:1397229944	The Noble Pig	brewpub	650 Victoria Street	Kamloops	British Columbia	V2C 2B4	Canada	50.6759879	-120.3259656		http://www.thenoblepig.ca	BC	BC
google:ChIJU8_-SV_zfVMRyzs2b6C4Kps	BNA Brewing Kelowna	micro	1250 Ellis St	Kelowna	British Columbia	V1Y 1Z4	Canada	49.8927871	-119.4937928		https://www.bnabrewing.com/menu	BC	BC
osm:node:7080394245	Barn Owl Brewing	micro	4629 Lakeshore Road, Unit 102	Kelowna	British Columbia	V1W 1X3	Canada	49.8168438	-119.4943019		https://www.barnowlbrewing.ca	BC	BC
google:ChIJp3ebKHDghVQRhzW5bbNcQwk	Britannia Brewing Co	micro	8999 Jim Bailey Rd	Kelowna	British Columbia	V4V 1R7	Canada	50.0112518	-119.3912013		http://www.bbco.ca/	BC	BC
osm:node:12101787591	Brittannia Brewing Co.	micro	8999 Jim Bailey Road	Kelowna	British Columbia	V4V 1R7	Canada	50.0110565	-119.3908008		http://www.bbco.ca/	BC	BC
google:ChIJx-qLJdnzfVMR4iHvoKqnBpk	Buffalo Rouge Brewing Co.	micro	1111 Gordon Dr #105	Kelowna	British Columbia	V1Y 3E3	Canada	49.8954287	-119.4761477		https://www.buffalorougebrewing.com/	BC	BC
google:ChIJwcLqoIqNfVMRFdV0hiMmvbs	Copper Brewing Company	micro	1851 Kirschner Rd #102	Kelowna	British Columbia	V1Y 4N7	Canada	49.880315	-119.4577682		http://www.copperbrewingco.com/	BC	BC
google:ChIJ1QEMNUqNfVMRHLcobtzCIFU	Freddy's Brewpub	brewpub	948 McCurdy Rd #124	Kelowna	British Columbia	V1X 2P7	Canada	49.9021622	-119.4052736		http://www.freddysbrewpub.com/	BC	BC
google:ChIJbasG1o3vfVMRNeTk07pa-Vc	Grey Fox Brewing	micro	310 Hiram Walker Ct #105	Kelowna	British Columbia	V4V 0B2	Canada	50.0104879	-119.3912157		https://greyfoxbrewing.com/	BC	BC
google:ChIJseKqwjzzfVMRvXA0RNO8_hg	Jackknife Brewing	micro	727 Baillie Ave	Kelowna	British Columbia	V1Y 7E4	Canada	49.8963724	-119.4876772		http://www.jackknife.beer/	BC	BC
osm:node:7483339732	Kelowna Brewing Company	brewpub	975 Academy Way, Unit 122	Kelowna	British Columbia	V1V 3C8	Canada	49.9350186	-119.3985921		http://www.kelownabrewingcompany.com/	BC	BC
google:ChIJEVBDRFzzfVMRLeGnAC-Z7qU	Kettle River Brewing Co.	micro	731 Baillie Ave	Kelowna	British Columbia	V1Y 7E4	Canada	49.8961517	-119.4873248		http://kettleriverbrewing.ca/	BC	BC
google:ChIJ3_hoIX31fVMRaIfRNROBb3Q	Lakesider Brewing	micro	835 Anders Rd	Kelowna	British Columbia	V1Z 1J9	Canada	49.8601	-119.5510099		https://lakesiderbrewing.com/	BC	BC
google:ChIJu5SEW-zzfVMRLs2cZZSnqOE	Railside Brewing Ltd	micro	1186 High Rd	Kelowna	British Columbia	V1Y 1N1	Canada	49.8929365	-119.4750781		http://railsidebrewing.ca/	BC	BC
google:ChIJ1ZMJO1zzfVMRFlW6B0mdbd0	Red Bird Brewing	micro	1080 Richter St	Kelowna	British Columbia	V1Y 2K5	Canada	49.8961066	-119.4891198		https://www.redbirdbrewing.com/	BC	BC
osm:node:7365286490	Rustic Reel Brewing Company	brewpub	760 Vaughan Avenue	Kelowna	British Columbia	V1Y 7E4	Canada	49.8946186	-119.4859093		http://www.rusticreel.com/	BC	BC
osm:node:8200939424	Shore Line Brewing	micro	3477 Lakeshore Road	Kelowna	British Columbia	V1W 3E9	Canada	49.8551016	-119.4898217		https://shorelinebrewing.com/	BC	BC
google:ChIJPe96di-LfVMRa5z7iR82UrE	Shore Line Brewing Co.	micro	3477 Lakeshore Rd #116	Kelowna	British Columbia	V1W 0A9	Canada	49.855027	-119.4899196		http://shorelinebrewing.com/	BC	BC
google:ChIJKX0GY0aLfVMRyaDmIRO-TuE	The Canadian Brewhouse & Grill (Kelowna)	micro	3030 Pandosy St	Kelowna	British Columbia	V1Y 1W2	Canada	49.86311	-119.49178		https://thecanadianbrewhouse.com/locations/kelowna/	BC	BC
google:ChIJdy1xUXmLfVMRgCB6Lor-I5k	The Hatching Post Brewery & Smokery	micro	2850 Boucherie Rd	Kelowna	British Columbia	V1Z 2G5	Canada	49.8550877	-119.5563643		http://www.hatchingpostbeer.com/	BC	BC
google:ChIJwf0dwxTzfVMRlksoATzo6r8	The Office Brewery	micro	890 Clement Ave #301	Kelowna	British Columbia	V1Y 7E4	Canada	49.89382	-119.48319		http://officebrewery.ca/	BC	BC
google:ChIJaREaDqDtfVMRcN7S43qidXI	Three Lakes Brewing Ltd	micro	2030 Matrix Cres #7	Kelowna	British Columbia	V1V 2Y9	Canada	49.95735	-119.38865		https://www.threelakesbrewing.com/	BC	BC
google:ChIJ7fZnahjzfVMRs_Su1Dgq0To	Unleashed Brewing Company	micro	880 Clement Ave #207	Kelowna	British Columbia	V1Y 0H8	Canada	49.8938674	-119.483818		http://unleashedbrewing.ca/	BC	BC
google:ChIJfVoNS1zzfVMRvkIV5mEYAWA	Vice & Virtue Brewing Co.	micro	1033 Richter St	Kelowna	British Columbia	V1Y 2K4	Canada	49.896829	-119.488253		https://www.viceandvirtuebrewing.ca/	BC	BC
osm:node:12104435585	Grist and Mash Brewery	brewpub	345 Wallinger Avenue	Kimberley	British Columbia	V1A 1Z3	Canada	49.6843844	-115.9837663		http://www.gristandmash.com/	BC	BC
osm:node:12104435586	Over Time Beer Works	brewpub	136A Wallinger Avenue	Kimberley	British Columbia	V1A 1Y8	Canada	49.6861689	-115.9817311		http://www.overtimebeer.ca/	BC	BC
osm:node:12079219713	Lake Country Brewing	micro	10058 BC-97 #4	Lake Country	British Columbia	V4V 1P8	Canada	50.0284276	-119.4052719	17784803322	https://lakecountrybeer.ca/	BC	BC
osm:node:7403621775	V2V Black Hops Brewing	micro	2323 Millstream Road	Langford	British Columbia	V9B 3R4	Canada	48.4647274	-123.5001782			BC	BC
osm:node:6583209093	Dead Frog Brewery	micro	8860 201 Street, Unit 105	Langley	British Columbia	V2Y 0C8	Canada	49.1629869	-122.6665164		http://www.deadfrog.ca/?utm_source=google&utm_medium=wix_google_business_profile&utm_campaign=15284000718588183974	BC	BC
osm:node:7057393169	Farm Country Brewing	micro	20555 56 Avenue, Unit 5	Langley	British Columbia	V3A 3Y9	Canada	49.1050692	-122.6519674		https://farmcountrybrewing.com/	BC	BC
google:ChIJMS4oWcfPhVQRAZm5-MkkNUM	Farm Country Brewing Inc.	micro	20555 56 Avenue, Unit 5	Langley	British Columbia	V3A 3Y9	Canada	49.1051635	-122.6524353	17788192288	https://farmcountrybrewing.com/	BC	BC
google:ChIJId6EDE3RhVQR2sYjIi95coc	Five Roads Brewing Co.	micro	6263 202 Street, Unit #1	Langley	British Columbia	V2Y 1N1	Canada	49.1162822	-122.6634236	16045396754	http://www.fiveroadsbrewing.com/	BC	BC
osm:node:11386277899	Smugglers Trail Caskworks and Brewery	brewpub	9339 200A Street, Unit 140	Langley	British Columbia	V1M 0B3	Canada	49.1719187	-122.6659806		https://smugglerstrailcask.com/	BC	BC
osm:node:4408498390	The Barley Merchant	brewpub	20090 91A Avenue, Unit 101	Langley	British Columbia	V1M 3Y9	Canada	49.168192	-122.6674367		https://thebarleymerchant.com/	BC	BC
google:ChIJ42eOUwDRhVQRudikCyz_Qbc	Trading Post Brewery & Tasting Room	micro	20120 64 Avenue, Unit 107	Langley	British Columbia	V2Y 1M7	Canada	49.1184938	-122.665114	16043432337	https://www.tradingpostbrewing.com/brewery-tastingroom	BC	BC
google:ChIJiYUUSkTPhVQRDfLgVd0Y-l8	Brookswood Brewing Company	micro	4061 200 Street, Unit 102	Langley Township	British Columbia	V3A 1K8	Canada	49.0763665	-122.6706418	16045100511	http://brookswoodbrewing.com/	BC	BC
google:ChIJvwuJ2KPPhVQRtZxzkIyjdBg	Smugglers Trail Caskworks (Brewery and Kitchen)	micro	9339 200A Street, Unit Unit 140	Langley Township	British Columbia	V1M 0B3	Canada	49.1719429	-122.6658203	17787051880	https://smugglerstrailcask.com/	BC	BC
osm:way:326285790	Mission Springs Brewing	micro	7160 Oliver Street	Mission	British Columbia	V2V 6K5	Canada	49.1322218	-122.3418286		https://springsgroup.ca/missionsprings/	BC	BC
osm:node:5853704427	The Curry Culture	brewpub	6304 Dover Road, Unit 4	Nanaimo	British Columbia	V9V 1S4	Canada	49.2418395	-124.0412333		https://www.curry.curryculture.ca/	BC	BC
osm:node:5349648108	Rusted Rake Brewing	brewpub	3106 Bay Rd.	Nanoose Bay	British Columbia	V9P 9E2	Canada	49.2677209	-124.1992753		https://rustedrakebrewing.ca/	BC	BC
osm:node:4913808221	Backroads Brewery	micro	460 Baker Street	Nelson	British Columbia	V1L 4H8	Canada	49.4916187	-117.2944981		https://backroadsbrewing.com	BC	BC
osm:way:292619696	Torchlight Brewing	micro	125 Hall Street	Nelson	British Columbia	V1L 7B4	Canada	49.4958163	-117.293165		https://www.torchlightbrewing.com/	BC	BC
google:ChIJNX84k3vYhVQRv8Jpfh_DJMA	Steel & Oak Brewing Co.	micro	1319 3rd Avenue	New Westminster	British Columbia	V3M 1R2	Canada	49.2019545	-122.9274497	16045406495	http://steelandoak.ca/	BC	BC
osm:way:163679606	Beere Brewing	micro	312 East Esplanade	North Vancouver	British Columbia	V7L 1A4	Canada	49.3083475	-123.0726777		https://www.beerebrewing.com/	BC	BC
osm:node:5826068945	Bridge Brewing Company	micro	1448 Charlotte Street	North Vancouver	British Columbia	V7J 1H2	Canada	49.3100732	-123.0339286		http://www.bridgebrewing.com/	BC	BC
osm:node:10731792681	La Cerveceria Astilleros	micro	226 East Esplanade	North Vancouver	British Columbia	V7L 1B4	Canada	49.3094695	-123.0752811		https://cerveceria-astilleros.com/	BC	BC
osm:way:23718595	Wildeye Brewing	micro	1385 Main Street	North Vancouver	British Columbia	V7J 1C4	Canada	49.3055772	-123.0348668		https://www.wildeyebrewing.ca/	BC	BC
osm:node:9963725829	Twin Island Cider	micro	5601 Lupin Road	Pender Island	British Columbia	V0N 2M1	Canada	48.7753088	-123.2615719		https://www.twinislandcider.com/	BC	BC
osm:node:13203831729	Abandoned Rail Brewing Co.	micro	1220 Davenport Avenue	Penticton	British Columbia	V2A 8V1	Canada	49.5275401	-119.5627468		http://www.arbrewco.com/	BC	BC
osm:node:13203722572	BNA Brewing Co	micro	218 Martin Street	Penticton	British Columbia	V2A 5K3	Canada	49.4997995	-119.5938951		https://www.bnabrewing.com/bna-penticton	BC	BC
osm:way:970421437	Bad Tattoo	micro	169 Estabrook Avenue	Penticton	British Columbia	V2A 1G2	Canada	49.5007274	-119.596177		https://badtattoobrewing.com/	BC	BC
osm:way:430097933	Cannery Brewing	micro	198 Ellis Street	Penticton	British Columbia	V2A 4L5	Canada	49.5008549	-119.5901785		https://www.cannerybrewing.com/	BC	BC
osm:node:13203801518	Tin Whistle Brewing Co	micro	1475 Fairview Road, Unit 118	Penticton	British Columbia	V2A 7W5	Canada	49.4829692	-119.5944723		https://www.tinwhistlebrewery.com	BC	BC
osm:way:622180120	Foamers' Folly Brewing	micro	19221 122A Avenue	Pitt Meadows	British Columbia	V3Y 2E9	Canada	49.2248368	-122.6890423		https://foamersfolly.ca/	BC	BC
osm:node:5005618963	Foamers' Folly Tap Room	brewpub	19221 122A Avenue	Pitt Meadows	British Columbia	V3Y 2E9	Canada	49.2248337	-122.689108		https://foamersfolly.ca/	BC	BC
osm:way:763241430	Boardwalk Brewery	micro	575 Seaborne Ave, Unit 2155	Port Coquitlam	British Columbia	V3E 3G7	Canada	49.2575642	-122.729425		https://www.boardwalkbrewery.com/	BC	BC
google:ChIJIabL_DN5hlQRqmpjDO2HihY	Patina Brewing Co. Brew House & BBQ	micro	2332 Marpole Avenue	Port Coquitlam	British Columbia	V3C 2A2	Canada	49.2613429	-122.78363	16044740025	http://patinabrewing.com/	BC	BC
google:ChIJDTg_Co3VhVQRWV2G33F7PZw	Taylight Brewing Tasting Room — Port Coquitlam	micro	1485 Coast Meridian Road, Unit 402	Port Coquitlam	British Columbia	V3C 5P1	Canada	49.2421722	-122.7551956	16042831944	http://taylightbrewing.com/	BC	BC
osm:node:6940277523	Tinhouse Brewing	micro	550 Sherling Place, Unit #2140,	Port Coquitlam	British Columbia	V3B 0J6	Canada	49.2512377	-122.732836		http://www.tinhousebrewing.ca/	BC	BC
osm:node:2226912810	Brown's Social House	micro	215 Newport Drive	Port Moody	British Columbia	V3H 5B9	Canada	49.2826657	-122.8269784		http://brownssocialhouse.com/newport-village/	BC	BC
osm:node:2245769416	St. James Well Pub	micro	248 Newport Drive	Port Moody	British Columbia	V3H 5B9	Canada	49.2823155	-122.8258606		https://stjameswell.ca/	BC	BC
osm:node:4366991390	The Parkside Brewery	micro	2731 Murray Street	Port Moody	British Columbia	V3H 1X1	Canada	49.2785528	-122.8495977		https://www.theparksidebrewery.com/tasting-room/	BC	BC
osm:way:438737613	Townsite Brewing	micro	5824 Ash Avenue	Powell River	British Columbia	V8A 4R4	Canada	49.8740399	-124.5510398		https://townsitebrewing.com/	BC	BC
osm:node:5175856935	Wheelhouse Brewing Co.	micro	380 Bill Murray Drive	Prince Rupert	British Columbia	V8J 4P5	Canada	54.3142096	-130.3297256		https://www.wheelhousebrewing.com/	BC	BC
osm:node:5907264590	Craft Bierhaus	micro	107 2nd Street East	Revelstoke	British Columbia	V0E 2S0	Canada	50.9976548	-118.195486		https://www.craftbierhaus.com/	BC	BC
osm:node:5907253607	The Last Drop	micro	200 3rd Street West	Revelstoke	British Columbia	V0E 2S0	Canada	50.9988601	-118.1975			BC	BC
osm:node:6578941969	Britannia Brewing Company	brewpub	12240 2nd Avenue, Unit 250	Richmond	British Columbia	V7E 3L8	Canada	49.1243026	-123.183936		https://www.bbco.ca/steveston	BC	BC
osm:node:4382410402	Fuggles Beer Co.	brewpub	11220 Horseshoe Way, Unit 103	Richmond	British Columbia	V7A 4V5	Canada	49.1293757	-123.0952983		https://www.fugglesbeer.com/	BC	BC
osm:way:296318785	Milltown Bar & Grill	micro	9191 Bentley Street, Unit 101	Richmond	British Columbia	V6P 0B9	Canada	49.2024657	-123.1444372		https://milltownbar.com/	BC	BC
osm:way:562037247	Barley Station Brew Pub	brewpub	20 Shuswap Street South	Salmon Arm	British Columbia	V1E 4H7	Canada	50.6995865	-119.2846727		https://barleystation.com	BC	BC
osm:node:3740618048	Salt Spring Island Ales	micro	270 Furness Road	Salt Spring Island	British Columbia	V8K 1Z7	Canada	48.7790135	-123.5040077	17783541121	http://www.SaltSpringIslandAles.com	BC	BC
osm:way:551701142	Batch 44 Brewery & Kitchen	micro	5559 Wharf Road	Sechelt	British Columbia	V0N 3A0	Canada	49.4738653	-123.7550378		https://batch44brewery.com/	BC	BC
osm:way:1307333151	Bad Dog Brewing Company	micro	7861 Tugwell Road	Sooke	British Columbia	V9Z 0J7	Canada	48.4029347	-123.7850964		https://www.baddogbrewing.ca/	BC	BC
osm:node:12611823955	Sooke Oceanside Brewery	brewpub	5871-A Sooke Road	Sooke	British Columbia	V9Z 0C7	Canada	48.3897053	-123.6785875		http://www.sookeoceansidebrewery.com/	BC	BC
osm:way:671891808	Cliffside Cider	micro	37760 Second Avenue, Unit 103	Squamish	British Columbia	V0N 3G0	Canada	49.6947181	-123.1577841		https://cliffsidecider.com/	BC	BC
osm:node:7360216860	Northyards Cider Co.	micro	38936 Queens Way, Unit 9	Squamish	British Columbia	V8B 0V2	Canada	49.7194739	-123.1537812		http://northyardscider.com/	BC	BC
osm:node:7412588343	Millionaires' Row Cider Co.	micro	14113 Dale Meadows Road	Summerland	British Columbia	V0H 1Z8	Canada	49.5903648	-119.7078098		http://millionairesrowcider.com/	BC	BC
google:ChIJjaMYTHzDhVQR5nZDpaBL3Ac	3 Dogs Brewing	micro	15181 Thrift Ave #107	Surrey	British Columbia	V4B 3Z6	Canada	49.0283603	-122.8023849		https://3dogsbrewing.ca/	BC	BC
google:ChIJv2qlmGvfhVQRgFImVfipGog	Barnside Brewing Co.	micro	6655 60 Ave	Surrey	British Columbia	V4K 4E2	Canada	49.112188	-123.038948		http://www.barnsidebrewing.ca/	BC	BC
google:ChIJpwWIPz15hlQRcRo0rzVdNeA	Brave Brewing Co.	micro	2617 Murray St	Surrey	British Columbia	V3H 1X1	Canada	49.2785683	-122.8532723		http://www.brave.beer/	BC	BC
google:ChIJvVrzLyzahVQRdpmanzsV_58	Brewster's Sports Pub	micro	7380 King George Blvd #700B	Surrey	British Columbia	V3W 5A5	Canada	49.1369158	-122.8450953		https://www.brewsterspub.ca/	BC	BC
google:ChIJM2AqUfTXhVQRwxEO87s8Ymk	Bridgeview Brewing Company, Ltd	micro	11411 Bridgeview Dr	Surrey	British Columbia	V3R 0C2	Canada	49.2099614	-122.8637738			BC	BC
google:ChIJiYUUSkTPhVQRDfLgVd0Y-l8	Brookswood Brewing Company	micro	4061 200 St #102	Surrey	British Columbia	V3A 1K8	Canada	49.0763665	-122.6706418		http://brookswoodbrewing.com/	BC	BC
osm:way:469288930	Central City Brewers & Distillers	micro	11411 Bridgeview Drive	Surrey	British Columbia	V3R 2N1	Canada	49.209852	-122.8637445		http://centralcitybrewing.com/	BC	BC
google:ChIJy959zY_MhVQRUVlvBhv2o3g	Dead Frog Brewery	micro	8860 201 St #105	Surrey	British Columbia	V2Y 0C8	Canada	49.1629505	-122.6667835		http://www.deadfrog.ca/?utm_source=google&utm_medium=wix_google_business_profile&utm_campaign=15284000718588183974	BC	BC
google:ChIJMS4oWcfPhVQRAZm5-MkkNUM	Farm Country Brewing Inc.	micro	20555 56 Ave #5	Surrey	British Columbia	V3A 3Y9	Canada	49.1051635	-122.6524353		https://farmcountrybrewing.com/	BC	BC
google:ChIJId6EDE3RhVQR2sYjIi95coc	Five Roads Brewing Co.	micro	6263 202 St #1	Surrey	British Columbia	V2Y 1N1	Canada	49.1162822	-122.6634236		http://www.fiveroadsbrewing.com/	BC	BC
google:ChIJb8FXdLnnhVQR5wbLrwH_ua8	Four Winds Beach House & Brewery	micro	6350 Market Ave	Surrey	British Columbia	V4L 0B1	Canada	49.0071125	-123.0474558		https://fourwindsbrewing.ca/pages/new-southlands	BC	BC
google:ChIJZRCfNqzfhVQRnZQLx8RuhhU	Four Winds Brewing Co. Taproom & Taco Shop	micro	4-7355 72 St	Surrey	British Columbia	V4G 1L5	Canada	49.1362321	-123.0270146		https://fourwindsbrewing.ca/pages/taproom-and-kitchen	BC	BC
google:ChIJr5_4FLbNhVQRm5DMnm7goRQ	Locality Brewing	micro	7111 252 St	Surrey	British Columbia	V4W 1H6	Canada	49.1316436	-122.5269921		https://localitybrewing.ca/	BC	BC
google:ChIJ-yzdCIPZhVQRxHml-rCjP54	Russell Brewing Company	micro	13018 80 Ave	Surrey	British Columbia	V3W 3B2	Canada	49.1478599	-122.8620372		http://www.russellbeer.com/	BC	BC
google:ChIJvwuJ2KPPhVQRtZxzkIyjdBg	Smugglers Trail Caskworks (Brewery and Kitchen)	micro	9339 200a St Unit 140	Surrey	British Columbia	V1M 0B3	Canada	49.1719429	-122.6658203		https://smugglerstrailcask.com/	BC	BC
google:ChIJNX84k3vYhVQRv8Jpfh_DJMA	Steel & Oak Brewing Co.	micro	1319 3rd Ave	Surrey	British Columbia	V3M 1R2	Canada	49.2019545	-122.9274497		http://steelandoak.ca/	BC	BC
google:ChIJzStEHp7DhVQRgqypJRdkju0	The Brew Estate Canada	micro	8910 120 St Unit no 107-109	Surrey	British Columbia	V3V 4B4	Canada	49.16499169999999	-122.8897826		https://brewestate.ca/	BC	BC
google:ChIJ42eOUwDRhVQRudikCyz_Qbc	Trading Post Brewery & Tasting Room	micro	20120 64 Ave #107	Surrey	British Columbia	V2Y 1M7	Canada	49.1184938	-122.665114		https://www.tradingpostbrewing.com/brewery-tastingroom	BC	BC
google:ChIJ0TEDmePbhVQRcKjHgevNf2I	Way Back Brew Co.	micro	15063 54a Ave #116	Surrey	British Columbia	V3S 5X7	Canada	49.1025466	-122.8049717		https://www.waybackbrewco.com/	BC	BC
osm:node:4170123554	Trading Post Eatery	brewpub	9143 Glover Road	Township Of Langley	British Columbia	V1M 0E8	Canada	49.1686753	-122.5799329		https://tradingpostbrewing.com/locations/taphouse-and-eatery/	BC	BC
osm:node:11073696932	Four Winds Beach House & Brewery	brewpub	6350 Market Avenue	Tsawwassen	British Columbia	V4L 0B1	Canada	49.0071208	-123.0474839		https://fourwindsbrewing.ca/	BC	BC
osm:way:264006075	Three Ranges Brewing Company	micro	1160 5th Avenue	Valemount	British Columbia	V0E 2Z0	Canada	52.832344	-119.2633599		https://www.threeranges.com/	BC	BC
osm:way:163538013	33 Acres Brewing	micro	15 West 8th Avenue	Vancouver	British Columbia	V5Y 1M8	Canada	49.2640115	-123.1053044		https://33acresbrewing.com/	BC	BC
google:ChIJ8-9z9eBzhlQRrFZDlPTIfTw	33 Acres Brewing Company	micro	15 W 8th Ave	Vancouver	British Columbia	V5Y 1M8	Canada	49.2639299	-123.1053388		http://33acresbrewing.com/	BC	BC
osm:way:163538024	33 Brewing Experiment	micro	25 West 8th Avenue	Vancouver	British Columbia	V5Y 1M8	Canada	49.264015	-123.1055113		https://33brewingexp.com/	BC	BC
google:ChIJoSErr2FxhlQRM-J1vP3DBqM	BREWHALL	micro	97 E 2nd Ave	Vancouver	British Columbia	V5T 1B3	Canada	49.2694506	-123.1035175		http://brewhall.com/	BC	BC
osm:way:308281117	Big Rock Brewery	micro	310 West 4th Avenue	Vancouver	British Columbia	V5Y 1G9	Canada	49.2672584	-123.1112097		https://bigrockbeer.com/	BC	BC
osm:way:292987416	Bomber Brewing	micro	1488 Adanac Street	Vancouver	British Columbia	V5L 2C3	Canada	49.2774467	-123.0746121		http://www.bomberbrewing.com/	BC	BC
osm:way:163679151	Brassneck Brewery	micro	2148 Main Street	Vancouver	British Columbia	V5T 3C5	Canada	49.265777	-123.100363		http://brassneck.ca/	BC	BC
google:ChIJD2LiYXFxhlQRfK9tJsUPZRk	Brewing August	micro	1614 W 3rd Ave	Vancouver	British Columbia	V6J 1K2	Canada	49.2687405	-123.1413009		http://brewingaugust.com/	BC	BC
google:ChIJow5AEGtxhlQRkHg2-erMH-s	Container Brewing Ltd.	micro	1216 Franklin St	Vancouver	British Columbia	V6A 1K1	Canada	49.282172	-123.0786751		http://containerbrewing.ca/	BC	BC
google:ChIJTxkZSvxzhlQRiExLqf6xWVg	Coquette Brasserie	micro	2685 Arbutus St	Vancouver	British Columbia	V6J 3Y4	Canada	49.26215759999999	-123.1532061		http://brasseriecoquette.ca/	BC	BC
osm:node:6136188000	Craft Collective Beerworks	micro	1575 Vernon Drive	Vancouver	British Columbia	V6A 3P8	Canada	49.2702461	-123.0792301		https://craftcollective.beer	BC	BC
google:ChIJOw2kcbNxhlQR5ice7Z85Yu8	Dead Fellows Brewing	micro	1343 Clark Dr	Vancouver	British Columbia	V5L 3K9	Canada	49.2725555	-123.0778511		https://strangefellowsbrewing.com/dead-fellows-haunted-brewhouse/	BC	BC
osm:node:3744582937	Dogwood Brewing	brewpub	8284 Sherbrooke Street	Vancouver	British Columbia	V5X 4R6	Canada	49.2098835	-123.0815672		https://dogwoodbrew.com/	BC	BC
google:ChIJRSiiiBVxhlQRzQymByrAcbQ	East Van Brewing Company	micro	1675 Venables St	Vancouver	British Columbia	V5L 2H1	Canada	49.2767882	-123.0711192		http://www.eastvanbrewing.com/	BC	BC
osm:way:577896312	East Vancouver Brewing	brewpub	1675 Venables Street	Vancouver	British Columbia	V5L 2H1	Canada	49.2769131	-123.0711209		https://www.eastvanbrewing.com/	BC	BC
osm:way:306884741	Electric Bicycle Brewing	micro	20 East 4th Avenue	Vancouver	British Columbia	V5T 1E8	Canada	49.2671655	-123.1042391		https://electricbicyclebrewing.com/	BC	BC
osm:node:4356771490	Faculty Brewing	brewpub	1830 Ontario Street	Vancouver	British Columbia	V5T 2W6	Canada	49.2686594	-123.10449		https://www.facultybrewing.com/	BC	BC
google:ChIJoWDqymFxhlQRnZeT-3SwVdI	Faculty Brewing Co.	micro	1830 Ontario St	Vancouver	British Columbia	V5T 2W6	Canada	49.2686589	-123.1045369		http://www.facultybrewing.com/	BC	BC
osm:node:6219907128	Granville Island Brewery	micro	1441 Cartwright St	Vancouver	British Columbia	V6H 3S5	Canada	49.2706171	-123.1357526		http://gib.ca	BC	BC
google:ChIJH3Iq8M5zhlQRHeW0Mjyb6T8	Granville Island Brewing	micro	1441 Cartwright St	Vancouver	British Columbia	V6H 3S5	Canada	49.270502	-123.135661		https://www.granvilleislandbrewing.ca/en-CA	BC	BC
osm:node:5173305067	Happy Tree House BBQ	micro	3502 Kingsway	Vancouver	British Columbia	V5R 5X7	Canada	49.2318915	-123.02888		https://happytreehousebbq.com/location/Kingsway/	BC	BC
google:ChIJgz2gx8NzhlQRiQ_OI9SbLr4	Honeybrew Bar + Bistro	micro	785 Davie St	Vancouver	British Columbia	V6Z 2S7	Canada	49.2777702	-123.1268652		https://honeybrewbar.com/	BC	BC
google:ChIJUXG8GWtxhlQRs4D_Vz6KVAk	Luppolo Brewing Co.	micro	1123 Venables St	Vancouver	British Columbia	V6A 2E3	Canada	49.2770333	-123.0806274		http://luppolobrewing.ca/	BC	BC
osm:way:292123382	Luppolo Brewing Company	micro	1123 Venables Street	Vancouver	British Columbia	V6A 2C3	Canada	49.2770356	-123.0805902		https://luppolobrewing.ca/	BC	BC
osm:way:533583781	Main Street Brewing	brewpub	261 East 7th Avenue	Vancouver	British Columbia	V5T 0B9	Canada	49.2647835	-123.0993079		https://www.mainstreetbeer.ca/	BC	BC
google:ChIJVRfsn19xhlQRz8RcxJPGDPU	Main Street Brewing Co.	micro	261 E 7th Ave	Vancouver	British Columbia	V5T 0B8	Canada	49.2646765	-123.0992152		http://mainstreetbeer.ca/	BC	BC
osm:way:608821722	Off The Rail	micro	1351 Adanac Street	Vancouver	British Columbia	V5L 2C4	Canada	49.27787	-123.0760054		https://offtherailbrewing.com/	BC	BC
google:ChIJ_0Bj3xRxhlQR92iSWFFLwmk	Off The Rail Brewing	micro	1351 Adanac St	Vancouver	British Columbia	V5L 2C4	Canada	49.2778058	-123.0760297		http://offtherailbrewing.com/	BC	BC
osm:node:4402102252	Off The Rail Tasting Room	micro	1351 Adanac St	Vancouver	British Columbia	V5L 2C4	Canada	49.2777606	-123.0760415		https://offtherailbrewing.com/	BC	BC
google:ChIJ4S1x8xlxhlQRE8HG0PL5H8Y	Parallel 49 Brewing Company	micro	1950 Triumph St	Vancouver	British Columbia	V5L 1K5	Canada	49.2837864	-123.064411		http://parallel49brewing.com/	BC	BC
osm:node:1944641265	Park Drive	micro	1815 Commercial Drive	Vancouver	British Columbia	V5N 4A6	Canada	49.2684155	-123.0698789		https://www.parkdrive.ca/	BC	BC
osm:node:6067566486	Patrón Tacos & Cantina	micro	265 Robson Street	Vancouver	British Columbia	V6B 0E7	Canada	49.2786794	-123.115383		https://www.patrontc.com/	BC	BC
google:ChIJ8d6cpxBxhlQRfK0TULeZq2g	Powell Brewery	micro	1357 Powell Street	Vancouver	British Columbia	V5L 1G8	Canada	49.2833264	-123.0757859	16045582537	http://www.powellbeer.com/	BC	BC
osm:way:306884738	R & B Brewing	micro	54 East 4th Avenue	Vancouver	British Columbia	V5T 1E8	Canada	49.2671386	-123.1034107		https://www.randbbrewing.com	BC	BC
osm:node:3940288768	Red Card Sports Bar + Eatery	micro	560 Smithe Street	Vancouver	British Columbia	V6B 3L9	Canada	49.2793791	-123.120222		https://www.redcardsportsbar.ca	BC	BC
osm:way:517508145	Red Truck Brewery Company	micro	295 East 1st Avenue	Vancouver	British Columbia	V5T 1A7	Canada	49.2689383	-123.0967039		https://www.redtruckbeer.com/brewery/	BC	BC
google:ChIJ28t23QxzhlQRlPVAoZUunSU	Stanley Park Brewing Restaurant & Brewpub	brewpub	8901 Stanley Park Dr	Vancouver	British Columbia	V6G 3E2	Canada	49.2923231	-123.1464802		https://www.stanleyparkbrewing.com/brewpub/	BC	BC
osm:way:49547895	Stanley Park Brewing Restaurant and Brewpub	micro	8901 Stanley Park Drive	Vancouver	British Columbia	V6G 3E2	Canada	49.2923109	-123.1464586		https://www.stanleyparkbrewing.com/brewpub/	BC	BC
osm:node:505751513	Steamworks	brewpub	375 Water Street	Vancouver	British Columbia	V6B 1B8	Canada	49.2848692	-123.110987		https://steamworks.com/brew-pub	BC	BC
google:ChIJNXC5QXhxhlQRaqLfMpShR-k	Steamworks Brewpub	brewpub	375 Water St	Vancouver	British Columbia	V6B 1B8	Canada	49.2848803	-123.1109429		https://steamworks.com/brew-pub/	BC	BC
osm:way:304171910	Storm Brewing	micro	310 Commercial Drive	Vancouver	British Columbia	V5L 3V6	Canada	49.2820429	-123.0700648		https://www.stormbrewing.org/	BC	BC
google:ChIJzUaT0RZxhlQR391Xa27Iklo	Storm Brewing LTD.	micro	310 Commercial Dr	Vancouver	British Columbia	V5L 3V6	Canada	49.28202839999999	-123.0701774		http://www.stormbrewing.org/	BC	BC
osm:way:302147964	Strange Fellows Brewing	micro	1345 Clark Drive	Vancouver	British Columbia	V5L 3K9	Canada	49.2725066	-123.0780412		https://strangefellowsbrewing.com/	BC	BC
osm:node:4625671015	Strathcona Beer Company	micro	895 East Hastings Street	Vancouver	British Columbia	V6A 1R8	Canada	49.2812705	-123.0851473		https://strathconabeer.com/	BC	BC
osm:way:302138381	Superflux Brewery	micro	505 Clark Drive	Vancouver	British Columbia	V5L 3H6	Canada	49.2801242	-123.0775125		http://www.superfluxbeer.com/	BC	BC
osm:node:5040239321	Tap & Barrel	brewpub	1055 Canada Place, Unit 76	Vancouver	British Columbia	V6C 0C3	Canada	49.2898003	-123.116892		https://tapandbarrel.com/	BC	BC
google:ChIJfzc2WkFxhlQR-XnvwHFIvuY	Terminal City Brewing	micro	1616 Clark Dr	Vancouver	British Columbia	V5L 4Y2	Canada	49.27023029999999	-123.0770794		https://tcbrewing.com/	BC	BC
osm:node:3743053714	The Butcher & Bullock	brewpub	911 West Pender Street	Vancouver	British Columbia	V6C 1L6	Canada	49.2861746	-123.116976		https://donnellygroup.ca/the-butcher-bullock/	BC	BC
osm:node:635894580	The Wolf and Hound	micro	3609 West Broadway	Vancouver	British Columbia	V6R 2B8	Canada	49.2644834	-123.1842067		https://www.wolfandhound.ca/	BC	BC
google:ChIJIXG3tclzhlQRq8Gz2FyVoEU	Vancouver Brewery Tours Inc.	micro	8284 Sherbrooke St	Vancouver	British Columbia	V5X 4E8	Canada	49.2098687	-123.0817579		http://vancouverbrewerytours.com/	BC	BC
google:ChIJefmz9dZzhlQRCnVoCGiuGYs	Yaletown Brewing Company	micro	1111 Mainland St	Vancouver	British Columbia	V6B 6C5	Canada	49.275665	-123.1209285		https://yaletownbrewing.com/	BC	BC
osm:way:323157933	Parallel 49 Brewing	micro	1950 Triumph Street	Vancovuer	British Columbia	V5L 1K5	Canada	49.283703	-123.0643727		http://parallel49brewing.com/	BC	BC
google:ChIJ04OlXp9zj1QRTEcGljs_DgI	Bowling at The Canadian Brewhouse - Uptown	micro	3555 Douglas St	Victoria	British Columbia	V8Z 0B9	Canada	48.4547204	-123.3758885		https://thecanadianbrewhouse.com/locations/victoria/	BC	BC
google:ChIJ_yMFeYN0j1QRhOMkq3VN3cY	Brasserie L'Ecole	micro	1715 Government St	Victoria	British Columbia	V8W 1Z4	Canada	48.4298376	-123.3667443		http://www.lecole.ca/	BC	BC
google:ChIJwyqnanxzj1QR7Lx4kVxauGo	Driftwood Brewing Company	micro	836 Viewfield Rd	Victoria	British Columbia	V9A 4V1	Canada	48.4341055	-123.3963734		http://driftwoodbeer.ca/	BC	BC
google:ChIJv1xCmSZzj1QRJtjJHZIi0LQ	Four Mile Brew Pub	micro	199 Island Hwy	Victoria	British Columbia	V9B 1G1	Canada	48.4523006	-123.4338413		http://fourmilehouse.com/	BC	BC
google:ChIJZxfaZQhzj1QRGo6kuQRL_JA	Hedekar Brewing and Fermentations	micro	11 Newcastle Ct	Victoria	British Columbia	V9B 6S7	Canada	48.4583421	-123.4675278			BC	BC
google:ChIJ-z-mobZ1j1QRHg9RSsorwOY	Herald Street Brew Works	micro	506 Herald St	Victoria	British Columbia	V8W 1S6	Canada	48.4303219	-123.3692456		http://heraldstreet.com/	BC	BC
google:ChIJEQnaP3xzj1QRM1BEb36e08c	Hoyne Brewing Company	micro	2740 Bridge St #101	Victoria	British Columbia	V8T 5C5	Canada	48.43707939999999	-123.3735301		https://hoynebrewing.ca/	BC	BC
google:ChIJYbE-w2dzj1QRnxcHb4ZUF04	Lighthouse Brewing	micro	836 Devonshire Rd Unit 2	Victoria	British Columbia	V9A 4T4	Canada	48.4364773	-123.3967592		http://www.lighthousebrewing.com/	BC	BC
google:ChIJp7zAC0hyj1QR_dqkvNhwgCc	Macaloney's Island Distillery & Twa Dogs Brewery	micro	761 Enterprise Crescent	Victoria	British Columbia	V8Z 6P7	Canada	48.48458460000001	-123.3870722		https://macaloneydistillers.com/	BC	BC
google:ChIJceJTHH1zj1QR_6dvkQRi39k	Moon Under Water Brewpub and Distillery	brewpub	350 Bay St	Victoria	British Columbia	V8T 1P7	Canada	48.43519269999999	-123.3755618		http://www.moonunderwater.ca/	BC	BC
google:ChIJNSg5Pmhzj1QROlX1DD5Wxps	Phillips Brewing & Malting Beer Shop	micro	2000 Government St	Victoria	British Columbia	V8T 4P1	Canada	48.432066	-123.3674589		http://phillipsbeer.com/	BC	BC
google:ChIJl7H8HHd1j1QRNPAjQxdfVIA	Roast @ Phillips Brewery	micro	2010 Government St	Victoria	British Columbia	V8T 4P1	Canada	48.43222530000001	-123.3676244		https://roastsandwichshop.com/	BC	BC
google:ChIJ8UwCKJ50j1QRykJnBrbQRM0	Spinnakers Gastro Brewpub & GuestHouses	brewpub	308 Catherine St	Victoria	British Columbia	V9A 3S8	Canada	48.4290663	-123.3850448		http://spinnakers.com/	BC	BC
google:ChIJP_iHpR91j1QRJBim7ZpksZI	Swift Brewing & Good Time Tasting Room	micro	450 Swift St	Victoria	British Columbia	V8W 1S2	Canada	48.4296455	-123.3708909		https://swiftbrewing.ca/	BC	BC
google:ChIJofFbx51zj1QRdnUv-YEiQw4	The Canadian Brewhouse & Grill (Victoria)	micro	3500 Uptown Blvd #117	Victoria	British Columbia	V8Z 0B9	Canada	48.4543261	-123.3756548		https://thecanadianbrewhouse.com/locations/victoria/	BC	BC
google:ChIJd8NGegB1j1QRhJSUtbtKths	Vancouver Island Brewing	micro	2330 Government St	Victoria	British Columbia	V8T 5G5	Canada	48.434776	-123.3677579		https://www.vibrewing.com/	BC	BC
google:ChIJ3dKswpl0j1QRfwAbs_yDCzE	West Coast Brewery Tours	micro	254 Belleville St.	Victoria	British Columbia	V8V 1W9	Canada	48.4222366	-123.3739457		http://www.westcoastbrewerytours.ca/	BC	BC
google:ChIJ61dBEBx1j1QRzxHNrrR-tQI	Whistle Buoy Brewing Company	micro	Market Square	Victoria	British Columbia	V8W 3C6	Canada	48.4281449	-123.3685871		http://www.whistlebuoybrewing.com/	BC	BC
osm:node:11372569766	Île Sauvage Brewing Co	micro	2960 Bridge Street	Victoria	British Columbia	V8T 4T3	Canada	48.4401257	-123.3738729		https://ilesauvage.com/	BC	BC
google:ChIJ3_hoIX31fVMRaIfRNROBb3Q	Lakesider Brewing	micro	835 Anders Road	West Kelowna	British Columbia	V1Z 1J9	Canada	49.8601	-119.5510099	12367661144	https://lakesiderbrewing.com/	BC	BC
osm:node:11142305798	Lakesider Brewing Co	brewpub	835 Anders Road	West Kelowna	British Columbia	V1Z 1J9	Canada	49.860022	-119.5505541		https://lakesiderbrewing.com/	BC	BC
google:ChIJdy1xUXmLfVMRgCB6Lor-I5k	The Hatching Post Brewery & Smokery	micro	2850 Boucherie Road	West Kelowna	British Columbia	V1Z 2G5	Canada	49.8550877	-119.5563643	17787558166	http://www.hatchingpostbeer.com/	BC	BC
osm:node:12626424427	Truck 59 Cider House	micro	3887 Brown Road	West Kelowna	British Columbia	V4T 2J3	Canada	49.8231669	-119.6275144		https://truck59ciderhouse.com/	BC	BC
osm:way:146628098	BrewHouse	brewpub	4355 Blackcomb Way	Whistler	British Columbia	V0N 1B4	Canada	50.1181965	-122.9545976		https://www.mjg.ca/brewhouse/	BC	BC
osm:node:6327967962	Handlebar Cafe and Apres	micro	4557 Blackcomb Way, Unit 110	Whistler	British Columbia	V8E 0Y2	Canada	50.1165172	-122.9481385		http://www.handlebar.beer/	BC	BC
osm:node:6559116310	High Mountain Brewing	micro	4355 Blackcomb Wy	Whistler	British Columbia	V8E 0X4	Canada	50.1182324	-122.954482		https://highmountainbrewing.ca/	BC	BC
osm:node:7431823233	RMU	brewpub	4557 Blackcomb Way, Unit 113	Whistler	British Columbia	V8E 0Y2	Canada	50.1165893	-122.947873		https://rmuoutdoors.com/pages/rmu-whistler-menus/#food	BC	BC
osm:node:6289961234	Whistler Brewing Company	micro	1045 Millar Creek Road	Whistler	British Columbia	V8E 0W5	Canada	50.0879864	-123.0401397		http://www.whistlerbeer.com/	BC	BC
osm:node:11794671838	Galaxie Public House	brewpub	15165 Russell Avenue	White Rock	British Columbia	V4B 2P4	Canada	49.029462	-122.8025015		https://www.galaxiecraftbeer.com	BC	BC
osm:way:627268564	The Beer Shack	micro	1515 Johnston Road	White Rock	British Columbia	V4B 3Z6	Canada	49.0294991	-122.8015019		https://thebeershackwr.com/	BC	BC
osm:node:6217786710	3 Dogs Brewing	brewpub	15181 Thrift Avenue, Unit 107		British Columbia	V4B 3Z6	Canada	49.0283676	-122.8022629		https://3dogsbrewing.com	BC	BC
osm:node:4761147452	A-Frame Brewing	micro	38927 Queens Way		British Columbia	V8B 0K9	Canada	49.7174896	-123.15563		https://www.aframebrewing.com/	BC	BC
osm:way:843717393	Alberni Brewing Co.	micro	4630 Adelaide Street		British Columbia	V9Y 6N4	Canada	49.2598846	-124.8091964		https://albernibrewingcompany.ca/	BC	BC
osm:node:11998000197	Angry Hen Brewing	micro	343 Front St		British Columbia	V0G 1M0	Canada	49.9116246	-116.9034305		http://angryhenbrewing.com/	BC	BC
osm:node:5799877591	Angry Otter Brewery	micro	1015 Marine Dr		British Columbia	V7P 1S6	Canada	49.3233118	-123.1025963		https://www.angryottertapandforno.com/	BC	BC
osm:node:6636159481	Another Beer Co	micro	30 Capilano Way #11		British Columbia	V3L 5M3	Canada	49.225551	-122.8859333		http://anotherbeerco.com/	BC	BC
osm:node:12324394395	Antidote Distilling Company	micro	Unit 103		British Columbia	V9Y 5M4	Canada	49.2594849	-124.8090883		https://antidotedistillingco.com/	BC	BC
osm:way:468943115	Arrowhead Brewery	micro	481 Arrow Rd		British Columbia	V0A 1K0	Canada	50.5167177	-116.0074427			BC	BC
osm:node:6632347004	BNA Brewing	micro	1250 Ellis St		British Columbia	V1Y 1Z4	Canada	49.8929163	-119.4939025		https://www.bnabrewing.com/menu	BC	BC
osm:node:5593462665	Backcountry Brewing	micro	1201 Commercial Way, Unit 405		British Columbia	V8B 0V1	Canada	49.7237282	-123.1539884		https://www.backcountrybrewing.com/	BC	BC
osm:node:7515501070	Barnside Brewery Co.	brewpub	6655 60 Avenue		British Columbia	V4K 4E2	Canada	49.1121957	-123.0389732		https://barnsidebrewing.ca/	BC	BC
osm:node:9975936266	Bayview Brewing Company	brewpub	204 Dogwood Drive, Unit A		British Columbia	V9G 1S8	Canada	48.9894305	-123.8136381		https://m.facebook.com/bayviewbrewingcompany?_rdr	BC	BC
osm:way:455393845	Beach Fire Brewery	micro	594 11th Avenue		British Columbia	V9W 4G4	Canada	50.0263951	-125.2482086		http://www.beachfirebrewing.ca/	BC	BC
osm:node:11733188802	Beacon Brewing	brewpub	9829 Third Street		British Columbia	V8L 3A7	Canada	48.6499522	-123.3975937		https://beaconbrewing.ca/	BC	BC
osm:node:5826068944	Black Kettle Brewing	micro	720 Copping St		British Columbia	V7M 3N2	Canada	49.3170744	-123.0927659		https://www.blackkettlebrewing.com/	BC	BC
osm:node:6880447819	Brave Brewing Co	micro	2617 Murray St		British Columbia	V3H 1X1	Canada	49.2786444	-122.853255		https://www.brave.beer/	BC	BC
osm:node:5808306969	Brewhall	micro	97 E 2nd Ave		British Columbia	V5T 1B3	Canada	49.26944	-123.1032687		http://brewhall.com/	BC	BC
osm:node:11018782682	Brewing August	micro	1614 West 3rd Avenue		British Columbia	V6J 1K2	Canada	49.2686874	-123.1413581		https://www.brewingaugust.com/	BC	BC
osm:node:6578946083	Britannia Brewing	micro	12500 Horseshoe Way, Unit 110		British Columbia	V7E 3L8	Canada	49.1233597	-123.0953064		https://bbco.ca/	BC	BC
osm:node:2933891016	Browns Crafthouse Kitchen & Bar	micro	6111 University Blvd #101		British Columbia	V6T 0C7	Canada	49.2564505	-123.100822		https://www.brownscrafthouse.com/	BC	BC
osm:node:8080068602	CRAFT Beer Market	brewpub	257 Bernard Avenue		British Columbia	V1Y 6N2	Canada	49.8861511	-119.4981107		https://www.craftbeermarket.ca/kelowna	BC	BC
osm:node:7059047908	Camp Beer	micro	19664 64 Ave		British Columbia	V2Y 3J6	Canada	49.1186178	-122.6782634		https://www.campbeer.ca/	BC	BC
osm:node:9728108089	Canuck Empire Brewing	brewpub	33797 King Road, Unit C		British Columbia	V2S 7P2	Canada	49.0316802	-122.2881639		https://www.canuckempirebrewing.com	BC	BC
osm:node:3740715135	Category 12	micro	Unit C		British Columbia	V8Z 5V2	Canada	48.565404	-123.4079525		https://category12beer.com/	BC	BC
osm:node:4983695222	Coast Mountain Brewing	micro	1212 Alpha Lake Road		British Columbia	V0N 1B1	Canada	50.0891477	-123.0381716		http://coastmountainbrewing.com	BC	BC
osm:node:4880385235	Copper Kettle Wine & Beer	micro	Unit 2		British Columbia	V1Y 4N7	Canada	49.0610083	-122.5030698		http://www.copper-kettle.com	BC	BC
osm:node:944736188	Craig Street Brew Pub	brewpub	25 Craig St		British Columbia	V9L 1V7	Canada	48.777256	-123.7084559		http://www.craigstreet.ca/	BC	BC
osm:node:8398400191	Crannog Ales	micro	706 Elson Road		British Columbia	V0E 2W1	Canada	50.8808571	-119.5065469		https://www.crannogales.com/	BC	BC
osm:way:631145958	Crannog Ales and Left Fields	micro	706 Elson Rd		British Columbia	V0E 2W1	Canada	50.8808975	-119.5065496		https://www.crannogales.com	BC	BC
osm:node:5748442706	Dageraad Brewing	micro	3191 Thunderbird Crescent #114		British Columbia	V5A 3G1	Canada	49.2559693	-122.9221527		https://dageraadbrewing.com/	BC	BC
osm:node:11957168150	Devils' Bath Brewing Co.	brewpub	1616 McNeill Road		British Columbia	V0N 2R0	Canada	50.5905541	-127.0867529		https://www.devilsbathbrewing.ca	BC	BC
osm:node:6536286771	Dockside Brewing	micro	1253 Johnston St		British Columbia	V6H 3R8	Canada	49.2695189	-123.1313182		https://docksidevancouver.com/about/#docksidebrewing	BC	BC
osm:node:7821263154	Empty Keg Brew House	micro	2190 Voght St		British Columbia	V1K 1C1	Canada	50.112283	-120.7876993		http://emptykegbrewhouse.ca/	BC	BC
osm:node:10138231877	Fern + Cedar Brewing Company	micro	680 Berwick Road, Unit 101		British Columbia	V9K 1R2	Canada	49.347083	-124.4387395		https://fernandcedar.ca	BC	BC
osm:way:406881590	Fernie Brewing Company	micro	26 Manitou Rd		British Columbia	V0B 1T2	Canada	49.5266889	-115.0476338		http://www.ferniebrewing.com/	BC	BC
osm:way:309662662	Field House Brewing	micro	2281 West Railway Street		British Columbia	V2S 2E3	Canada	49.0429757	-122.2817842		https://fieldhousebrewing.com/	BC	BC
osm:node:6579131024	Five Roads Brewing	micro	6263 202 Street, Unit 1		British Columbia	V2Y 1N1	Canada	49.1162645	-122.6634679		https://www.fiveroadsbrewing.com	BC	BC
osm:node:6578930119	Four Winds	micro	4-7355 72 St		British Columbia	V4G 1L5	Canada	49.1361694	-123.0272446		https://fourwindsbrewing.ca/	BC	BC
osm:node:12709040301	Fox Mountain Brewing Co.	micro	215 Donald Road		British Columbia	V2G 4K4	Canada	52.1346091	-122.1344219		https://www.foxmountainbeer.com/	BC	BC
osm:way:760876950	Fox and Hounds	micro	11 High Street		British Columbia	V4W 3E8	Canada	48.9942261	-123.8173421		https://www.foxandhounds.ca/	BC	BC
osm:way:176112050	Frankie G's Pub	brewpub	305 Ewen Avenue		British Columbia	V3M 5B4	Canada	49.1934617	-122.9301545		http://frankiegspub.com/	BC	BC
osm:node:6632255829	Freddy's Brewing	micro	948 McCurdy Rd #124		British Columbia	V1X 2P7	Canada	49.9021339	-119.4051442		https://www.mccurdybowl.com/craftbrewerykelowna	BC	BC
osm:node:7295297892	Gladstone Brewery	micro	244 4th St		British Columbia	V9N 1G6	Canada	49.6918587	-124.9981509		http://www.gladstonebrewing.ca/	BC	BC
osm:node:5827966279	Green Leaf Brewing	micro	Lonsdale Quay Market		British Columbia	V7M 3K7	Canada	49.3101166	-123.082554		http://www.greenleafbrew.com/	BC	BC
osm:node:12079219722	Grey Fox Brewery	micro	310 Hiram Walker Ct #105		British Columbia	V4V 0B2	Canada	50.0104951	-119.3912844		https://greyfoxbrewing.com/	BC	BC
osm:node:1724634998	Hanwoori Korean Restaurant	micro	5740 Imperial St		British Columbia	V5J 1G2	Canada	49.2217132	-122.9806709		http://www.hanwoori.ca/	BC	BC
osm:node:5740411412	Hastings Mill Brewing	brewpub	580 Nicola Ave #3110		British Columbia	V3B 0P2	Canada	49.2814329	-123.0949663		https://www.hastingsmillbrewing.com/	BC	BC
osm:node:9229004004	Hillcrest Brewing	micro	7541 Conway Avenue		British Columbia	V5E 2P7	Canada	49.2155366	-122.968904		http://hillcrestbrewing.com/	BC	BC
osm:node:6037924842	Howe Sound Brewing	micro	37801 Cleveland Avenue		British Columbia	V8B 0A7	Canada	49.6954506	-123.156572		https://www.howesound.com/	BC	BC
osm:node:11733186735	Howl Brewing	brewpub	1780 Mills Road		British Columbia	V8L 5S9	Canada	48.6557851	-123.4266924		https://www.howlbrewing.ca	BC	BC
osm:node:11752268279	Hoyne Brewing Company	micro	2740 Bridge Street, Unit 101		British Columbia	V8T 5C5	Canada	48.4371039	-123.373611		https://www.hoynebrewing.ca/	BC	BC
osm:node:5797806257	Iron Road Brewing	micro	980 Camosun Crescent		British Columbia	V2C 6G2	Canada	50.6668685	-120.3672948		https://www.ironroadbrewing.ca/	BC	BC
osm:node:6632346802	Kettle River Brewing	micro	731 Baillie Ave		British Columbia	V1Y 7E4	Canada	49.8960889	-119.487395		http://kettleriverbrewing.ca/	BC	BC
osm:way:704728558	Kind Brewing	micro	835 Anders Rd		British Columbia	V1Z 1J9	Canada	49.829312	-119.6256878		https://lakesiderbrewing.com/	BC	BC
osm:node:7132985214	Land and Sea Brewery	micro	2040 Guthrie Rd		British Columbia	V9M 3P6	Canada	49.6880026	-124.937065		https://www.landandseabrewing.ca/	BC	BC
osm:way:1334495326	Left Field Cider Co.	micro	PO Box 731		British Columbia	V1K 1M6	Canada	50.3615653	-120.8031353		https://www.leftfieldcider.com/	BC	BC
osm:node:6880447820	Lightheart Brewing	micro	836 Devonshire Rd Unit 2		British Columbia	V9A 4T4	Canada	49.2785534	-122.8544463		http://lightheartbrewing.com/	BC	BC
osm:node:11965368142	Lighthouse Brewing Company	micro	836 Devonshire Rd Unit 2		British Columbia	V9A 4T4	Canada	48.4363926	-123.3966869		http://www.lighthousebrewing.com/	BC	BC
osm:way:758581873	Locality Brewing	micro	7111 252 Street		British Columbia	V4W 1H6	Canada	49.1315902	-122.5269571		https://www.localitybrewing.ca/	BC	BC
osm:node:7293370127	Longwood Brewery	micro	2046 Boxwood Rd		British Columbia	V9S 5W7	Canada	49.1868034	-123.9938252		http://longwoodbeer.com/	BC	BC
osm:way:170661107	Longwood Restaurant and Brewpub	brewpub	5775 Turner Road		British Columbia	V9T 6L8	Canada	49.2245374	-124.0353405		https://www.longwoodbrewpub.com/	BC	BC
osm:node:6235154001	Loudmouth Brewing	micro	2582 Mount Lehman Road, Unit 140		British Columbia	V4X 2N3	Canada	49.0491957	-122.3807688		https://loudmouthbrewingcompany.ca/	BC	BC
osm:node:11039898309	Mama Said Pizza Co.	micro	3135 Murray Street		British Columbia	V3H 0L9	Canada	49.2786318	-122.840499		https://mamasaidpizza.com/	BC	BC
osm:node:7059002958	Maple Meadows Brewing	micro	19221 122a Ave		British Columbia	V3Y 2E9	Canada	49.2208497	-122.5911747		http://foamersfolly.ca/	BC	BC
osm:node:5859618095	Mariner Brewing	micro	1100 Lansdowne Dr H		British Columbia	V3B 5E2	Canada	49.2773001	-122.8097427		https://www.marinerbrewing.ca	BC	BC
osm:node:9763334023	Marten Brewing Co.	micro	2933a 30th Ave		British Columbia	V1T 2B8	Canada	50.2639201	-119.2705097		https://www.silverstarbrewing.com/	BC	BC
osm:node:9725611255	Mayne Brewing	micro	490 Fernhill Rd		British Columbia	V0N 2J2	Canada	48.8485438	-123.2890888		https://www.mayneislandbrewingco.com/	BC	BC
osm:node:3418917593	Moody Ales	micro	2601 Murray Street		British Columbia	V3H 3R5	Canada	49.2786245	-122.854362		https://www.moodyales.com/	BC	BC
osm:node:4330495853	Moon Under Water	brewpub	350B Bay Street		British Columbia	V8T 1P7	Canada	48.4352075	-123.375443		https://www.moonunderwater.ca/	BC	BC
osm:node:7295886029	Mount Arrowsmith Brewery	micro	#109		British Columbia	V9P 1V9	Canada	49.3161074	-124.2988515		http://arrowsmithbrewing.com/	BC	BC
osm:node:7295693973	Mount Arrowsmith Tasting Room	brewpub	425 Stanford Avenue East, Unit 109		British Columbia	V9P 1V9	Canada	49.3160339	-124.298867		https://arrowsmithbrewing.com	BC	BC
osm:way:135497706	Mountainview Brewing	micro	390 Old Hope-Princeton Way		British Columbia	V0X 1L4	Canada	49.3748761	-121.4351399		https://mountainviewbrewing.ca/	BC	BC
osm:way:397570091	Mt. Begbie Brewery	micro	2155 Oak Drive		British Columbia	V0E 2S0	Canada	50.9952265	-118.1652183		https://www.mt-begbie.com/	BC	BC
osm:way:1122580228	Neighbourhood Brewing	micro	187 Westminster Avenue W		British Columbia	V2A 1J7	Canada	49.5000059	-119.595753		https://neighbourhoodbrewing.com/	BC	BC
osm:node:9703237372	New Tradition Brewing	micro	215 Port Augusta St		British Columbia	V9M 3N1	Canada	49.6732534	-124.9239717		https://newtraditionbrewing.com/	BC	BC
osm:way:163679834	North Point Brewing	micro	266 East 1st Street		British Columbia	V7L 1B3	Canada	49.3096703	-123.0729649		http://www.northpointbrewing.com/	BC	BC
osm:node:6940177156	Northpaw Brewing	micro	2150-570 Sherling Pl		British Columbia	V3Y 2T8	Canada	49.2530764	-122.7333803		http://www.northpawbrewco.com/	BC	BC
osm:way:698813119	Okanagan Spring Brewery	micro	2801 27A Ave		British Columbia	V1T 0C2	Canada	50.2616757	-119.268918		http://okspring.com/	BC	BC
osm:node:4605132890	Old Abbey Ales	micro	30321 Fraser Highway, Unit 1A		British Columbia	V4X 1T3	Canada	49.056369	-122.3832811		https://www.oldabbeyales.com/	BC	BC
osm:node:5797833148	Old Yale Brewing	micro	33738 Laurel St		British Columbia	V2S 1X2	Canada	49.1180047	-121.9917126		https://www.oldyalebrewing.com/	BC	BC
osm:way:295230446	Old Yale Brewing Co.	brewpub	33738 Laurel Street		British Columbia	V2S 1X2	Canada	49.0464386	-122.2913261		https://www.oldyalebrewing.com	BC	BC
osm:way:305651112	Patina Brewing	micro	2332 Marpole Avenue		British Columbia	V3C 2A1	Canada	49.2613871	-122.7836166		https://patinabrewing.com/	BC	BC
osm:node:6086291185	Phillips Tasting Room	brewpub	2000 Government St		British Columbia	V8T 4P1	Canada	48.4320595	-123.367541		https://phillipsbeer.com	BC	BC
osm:node:12178688765	Please! Beverage Co.	micro	222 West 5th Avenue		British Columbia	V5Y 1J4	Canada	49.2664695	-123.1099828		http://www.pleasebevco.ca/	BC	BC
osm:way:1059414466	Port Browning Pub	micro	4605 Oak Rd		British Columbia	V0N 2M1	Canada	48.776564	-123.274986		http://www.portbrowning.ca/	BC	BC
osm:node:7295341376	RAD Brewing Company	micro	Unit 11		British Columbia	V9M 3N1	Canada	49.6733777	-124.923957		https://radbrewco.com/	BC	BC
osm:node:12626612276	Raven's Brewing	micro	Unit 101		British Columbia	V3G 0H8	Canada	49.0557427	-122.1865686		https://www.ravens.beer/	BC	BC
osm:way:707950324	Red Arrow Brewery	micro	5255 Chaster Road		British Columbia	V9L 5J2	Canada	48.762904	-123.6902306		http://redarrowbeer.ca/	BC	BC
osm:way:397027060	Rewind Beer Co	micro	2809 Murray Street		British Columbia	V3H 1X3	Canada	49.2785775	-122.8492574		https://rewindbeer.com/	BC	BC
osm:node:11021093598	Rewind Tasting Room	micro	2809 Murray St		British Columbia	V3H 1X3	Canada	49.2786607	-122.8493098		https://rewindbeer.com/	BC	BC
osm:node:7059002959	Ridge Brewing	micro	22826 Dewdney Trunk Rd		British Columbia	V2X 7Y3	Canada	49.219972	-122.5894795		http://www.ridgebrewing.com/	BC	BC
osm:way:1228756955	Riley's Cidery	micro	620 Laura Road		British Columbia	V0N 1G2	Canada	49.3624104	-123.4012117		https://www.rileyscider.com/	BC	BC
osm:way:653489099	Riot Brewery	micro	3055 Oak St #101A		British Columbia	V0R 4K0	Canada	48.9264565	-123.7279542		http://www.facebook.com/seriousbrewingcompany	BC	BC
osm:node:6578941737	Russell Brewing	micro	13018 80 Ave		British Columbia	V3W 3B2	Canada	49.1477715	-122.8619806		https://russellbeer.com	BC	BC
osm:node:5740363728	Settlement Brewing	micro	1475 Fairview Rd Unit 118		British Columbia	V2A 7W5	Canada	49.2842147	-123.0954293		https://www.settlementbuilding.com/settlementbrewing	BC	BC
osm:node:10795944452	Shaketown Brewing	micro	288 East Esplanade, Unit 105		British Columbia	V7L 4M8	Canada	49.3087064	-123.0733955		https://shaketownbrewing.com/	BC	BC
osm:way:708337634	Slackwater Brewing	micro	218 Martin Street		British Columbia	V2A 5K3	Canada	49.4998071	-119.593886		https://slackwaterbrewing.com/	BC	BC
osm:node:6961323681	Slow Hand Brewery	micro	1507 Powell St		British Columbia	V5L 4X5	Canada	49.284184	-123.067224		http://www.slowhandbeer.com/	BC	BC
osm:node:7297633317	Small Block Brewery	micro	203-5301 Chaster Rd		British Columbia	V9L 6W4	Canada	48.7645706	-123.6924473			BC	BC
osm:node:11733188801	Small Gods Brewpub	brewpub	9835 Third Street		British Columbia	V8L 3A7	Canada	48.6500264	-123.3975937		https://smallgods.ca/	BC	BC
osm:node:9165157855	Smithers Brewing Co.	micro	3832 3rd Avenue		British Columbia	V0J 2N0	Canada	54.7814447	-127.1700399		http://smithersbrewing.com/	BC	BC
osm:node:5879387279	Spinnakers	micro	308 Catherine St		British Columbia	V9A 3S8	Canada	48.4291158	-123.3852088		https://www.spinnakers.com/	BC	BC
osm:node:6742318676	Stanley Park Taphouse	brewpub	8901 Stanley Park Dr		British Columbia	V6G 3E2	Canada	49.192232	-123.1802313		https://www.stanleyparkbrewing.com/brewpub/	BC	BC
osm:node:5748454693	Steel & Oak Brewing	micro	1319 3rd Ave		British Columbia	V3M 1R2	Canada	49.2021344	-122.9273084		https://steelandoak.ca/	BC	BC
osm:node:6654011926	Streetcar Brewing	micro	123A 1st St E		British Columbia	V7L 1B2	Canada	49.3112868	-123.0779453		http://www.streetcarbrewing.ca/	BC	BC
osm:node:3701537464	Sushi Garden	micro	4635 Kingsway		British Columbia	V5H 4L3	Canada	49.2190996	-122.9671782		https://sushigarden.ca/	BC	BC
osm:node:9733882758	The Beer Farmers	brewpub	8324 Pemberton Meadows Road		British Columbia	V0N 2L2	Canada	50.4039641	-122.8863753		https://www.thebeerfarmers.com/	BC	BC
osm:way:377203208	The Black Antler	brewpub	218 Winnipeg Street		British Columbia	V2A 5M2	Canada	49.4991639	-119.5963837		https://www.blackantlerpenticton.com/	BC	BC
osm:way:1203155882	The Hatching Post	brewpub	2850 Boucherie Road		British Columbia	V1Z 2G5	Canada	49.8551631	-119.5564227		https://hatchingpostbeer.com	BC	BC
osm:way:302301575	Threefold Brewery	micro	1507 Powell Street		British Columbia	V5L 5C3	Canada	49.2836056	-123.0737687		https://www.threefoldbeer.com/	BC	BC
osm:node:13076937622	Threefold Tasting Lounge	micro	1507 Powell St		British Columbia	V5L 5C3	Canada	49.2834922	-123.073681		https://www.threefoldbeer.com	BC	BC
osm:node:7693065186	Tofino Brewing Co.	micro	691 Industrial Way		British Columbia	V0R 2Z0	Canada	49.1389811	-125.8914696		https://tofinobrewingco.com/	BC	BC
osm:node:11887285357	Tofino Kombucha	micro	681 Industrial Way		British Columbia	V0R 2Z0	Canada	49.1393057	-125.8917559		https://www.tofinokombucha.com/	BC	BC
osm:way:292619713	Torchlight Brewing Co.	micro	511 Front Street		British Columbia	V1L 7B4	Canada	49.4943416	-117.2952612		https://www.torchlightbrewing.com/	BC	BC
osm:node:6578999593	Trading Post Brewery and Tasting Room	micro	20120 64 Avenue, Unit 107		British Columbia	V2Y 1M7	Canada	49.1185688	-122.6651089		https://tradingpostbrewing.com/locations/brewery-and-tasting-room/	BC	BC
osm:way:688802068	Trading Post Eatery	brewpub	3058 Gladwin Road		British Columbia	V1M 2S5	Canada	49.0573274	-122.3152245		https://tradingpostbrewing.com/locations/eatery-abbotsford	BC	BC
osm:way:397023357	Train Wreck Brewing	micro	3044 Saint Johns Street		British Columbia	V3H 2C5	Canada	49.2769806	-122.8433944		https://www.trainwreckbrewing.ca/	BC	BC
osm:node:6632346735	Tree Brewing	micro	310 W 4th Ave		British Columbia	V5Y 1G9	Canada	49.8904829	-119.4970262		https://treebeer.com/	BC	BC
osm:node:6601295699	Trench Brewing & Distilling	micro	399 2nd Avenue		British Columbia	V2L 2Z4	Canada	53.9135733	-122.7310681		https://www.trenchbrew.ca/	BC	BC
osm:way:782291907	Twin City Brewery	micro	4503 Margaret Street		British Columbia	V9Y 6G8	Canada	49.2570982	-124.8110271		http://twincitybrewing.ca/	BC	BC
osm:node:3713830496	Twin Sails Brewery	micro	2821 Murray St		British Columbia	V3H 1X3	Canada	49.278541	-122.848401		https://twinsailsbrewing.com/	BC	BC
osm:node:6080707111	Velocity Lounge & Driving Range	micro	700 Petersen Road		British Columbia	V9W 3H7	Canada	50.0193218	-125.2675861		https://www.naturallypacific.ca/golf/velocity-driving-range/	BC	BC
osm:node:6632304206	Vice & Virtue	micro	1033 Richter Street		British Columbia	V1Y 2K4	Canada	49.8968208	-119.4882887		https://viceandvirtuebrewing.ca	BC	BC
osm:node:6418786831	White Rock Beach Beer	brewpub	15183 Russell Street		British Columbia	V4B 2P4	Canada	49.0294386	-122.8018304		http://www.whiterockbeachbeer.com	BC	BC
osm:node:6418787216	White Rock Beach Beer Brewery	micro	15181 Russell Street		British Columbia	V4B 2P4	Canada	49.0294431	-122.8019661		http://www.whiterockbeachbeer.com/	BC	BC
osm:way:563980232	White Sails Brewery	micro	125 Comox Rd		British Columbia	V9R 3H9	Canada	49.170015	-123.9397695		http://www.whitesailsbrewing.com/	BC	BC
osm:node:4759044635	White Tooth Brewery	micro	623 8 Ave N		British Columbia	V0A 1H0	Canada	51.3018263	-116.9703553		http://www.whitetoothbrewing.com/	BC	BC
osm:node:6632377690	Wild Ambition Brewing	micro	1-3314 Appaloosa Rd		British Columbia	V1V 2W5	Canada	49.9213894	-119.3926304		http://wildambition.beer/	BC	BC
osm:way:1306658876	Wilson Creek UBrew	micro	1680 Field Road		British Columbia	V7Z 0A4	Canada	49.4426376	-123.7096333		https://www.wilsoncreekubrew.ca/	BC	BC
osm:node:7293460151	Wolf Brewery	micro	940 Old Victoria Rd		British Columbia	V9R 6Z8	Canada	49.1418958	-123.931402		http://www.wolfbrewingcompany.com/	BC	BC
osm:node:903721300	Yaletown Brewing Company	micro	1111 Mainland St		British Columbia	V6B 6C5	Canada	49.2754439	-123.1210153		https://www.mjg.ca/yaletown/	BC	BC
osm:node:3418914696	Yellow Dog Brewing	micro	2817 Murray St #1		British Columbia	V3H 1X3	Canada	49.2785388	-122.848708		https://yellowdogbeer.com/	BC	BC
osm:way:95309038	The Guinness Tavern by The Double Decker	micro	943 Rosser Avenue	Brandon	Manitoba	R7A 0L1	Canada	49.8486098	-99.9511928		http://www.thedoubledecker.ca/	MB	MB
osm:way:103096663	Bailey's	brewpub	185 Lombard Avenue	Winnipeg	Manitoba	R3B 0W4	Canada	49.8965807	-97.1378049		https://www.baileysprimedining.com/	MB	MB
osm:way:383101768	Barn Hammer Brewing Company	micro	595 Wall Street	Winnipeg	Manitoba	R3G 2T3	Canada	49.8846621	-97.1825255		https://barnhammerbrewing.ca	MB	MB
google:ChIJw9deKCN06lIRPDH4K0qWdwA	Brazen Hall Kitchen & Brewery	micro	800 Pembina Hwy	Winnipeg	Manitoba	R3M 2M7	Canada	49.85738569999999	-97.1511932		http://www.brazenhall.ca/	MB	MB
osm:way:54717636	Canadian Brewhouse	brewpub	1715 Kenaston Boulevard	Winnipeg	Manitoba	R3Y 1V5	Canada	49.8204756	-97.1972645		https://thecanadianbrewhouse.com/locations/winnipeg/	MB	MB
google:ChIJqUXYCxN16lIRhf8vM_bCzx8	Devil May Care Brewing Company	micro	155-A Fort St	Winnipeg	Manitoba	R3C 1C8	Canada	49.8902754	-97.1370423		http://devilmaycarebrewing.com/	MB	MB
osm:way:62080172	Fort Garry Brewing	micro	130 Lowson Crescent	Winnipeg	Manitoba	R3P 2H8	Canada	49.836188	-97.2083463		http://www.fortgarry.com/	MB	MB
osm:way:1198415356	Good Neighbour Brewing Co.	brewpub	110 Sherbrook Street	Winnipeg	Manitoba	R3C 2B4	Canada	49.8820607	-97.159847		https://www.goodneighbourbrewing.com/	MB	MB
google:ChIJeau9s-xz6lIRiOsHHNlqDQA	Good Neighbour Brewing Company	micro	110 Sherbrook St	Winnipeg	Manitoba	R3C 2B4	Canada	49.88207250000001	-97.1598807		http://www.goodneighbourbrewing.com/	MB	MB
google:ChIJt6TJhW5z6lIR1TEouBrrCfk	Half Pints Brewing Company	micro	550 Roseberry St	Winnipeg	Manitoba	R3H 0T1	Canada	49.8916195	-97.2159366		http://www.halfpintsbrewing.com/	MB	MB
google:ChIJnaWZ5mxx6lIRd5g1rnomm10	Kilter Brewing Co.	micro	450 Rue Deschambault	Winnipeg	Manitoba	R2H 0K1	Canada	49.88985049999999	-97.1075254		https://kilterbrewing.co/	MB	MB
google:ChIJvVvhIjVx6lIRe5orvQADQOU	Lake of the Woods Brewing Company Winnipeg	micro	221 Carlton St	Winnipeg	Manitoba	R3C 1P5	Canada	49.8909068	-97.1446373		http://lowbrewco.com/	MB	MB
osm:way:184328098	Little Brown Jug	micro	336 William Avenue	Winnipeg	Manitoba	R3B 0R3;R3A 0H7	Canada	49.8998981	-97.1431027		https://www.littlebrownjug.ca	MB	MB
google:ChIJs9jiaSFpMwkREszEdR4RB7s	Namesake Brewing	micro	830 King Edward St #330	Winnipeg	Manitoba	R3H 0P4	Canada	49.90271	-97.2073882		http://www.namesakebrewing.beer/?utm_source=google&utm_medium=wix_google_business_profile&utm_campaign=10327698167586226216	MB	MB
osm:way:73320208	Next Door	brewpub	116 Sherbrook Street	Winnipeg	Manitoba	R3C 2B4	Canada	49.8821995	-97.1598774		https://www.nextdoorwpg.com/	MB	MB
osm:node:3863043512	Nonsuch Brewing Co.	micro	125 Pacific Avenue	Winnipeg	Manitoba	R3B 0M1	Canada	49.9002852	-97.1339594		https://www.nonsuch.beer/	MB	MB
osm:node:4336189008	One Great City Brewing Co.	brewpub	1596 Ness Avenue	Winnipeg	Manitoba	R3J 3W6	Canada	49.883221	-97.2031836		https://ogcbrewingco.com/	MB	MB
google:ChIJbYLL4ntz6lIRB2W4UBL7Q9U	One Great City Brewing Company	micro	1596 Ness Ave	Winnipeg	Manitoba	R3J 3W6	Canada	49.8832092	-97.2028884		http://ogcbrewingco.com/	MB	MB
google:ChIJJUEIolFx6lIRL4d4nWcaoeo	Oval Room Brasserie	micro	222 Broadway	Winnipeg	Manitoba	R3C 0R3	Canada	49.8879566	-97.1367355		https://www.fortgarryhotel.com/oval-room-brasserie	MB	MB
osm:node:4434972865	Oxus Brewing Company	micro	1180 Sanford Street	Winnipeg	Manitoba	R3E 2Z9	Canada	49.9006461	-97.1937705		https://oxusbrewing.com/	MB	MB
google:ChIJ-4SHZ0hx6lIRJ9xccK33hK4	Promenade Brasserie	micro	130 Provencher Blvd Unit C	Winnipeg	Manitoba	R2H 0G3	Canada	49.8912485	-97.1244521		https://www.promenadebrasserie.ca/	MB	MB
osm:way:82348287	Shrugging Doctor Brewing Company	unknown	448B Brooklyn Street	Winnipeg	Manitoba	R3J 1N8	Canada	49.8880415	-97.209701		https://shrugdoc.com/	MB	MB
google:ChIJ-SUBuPV36lIRztmkW9ErfLc	Sookram's Brewing Company	micro	479-B Warsaw Ave	Winnipeg	Manitoba	R3L 0R2	Canada	49.87271430000001	-97.141976		http://sookrams.com/	MB	MB
osm:node:6357528286	Sookram’s Brewing Co.	micro	479 Warsaw Avenue, Unit B	Winnipeg	Manitoba	R3L 0R2	Canada	49.8727278	-97.1419989		https://www.sookrams.com/	MB	MB
osm:node:4789176386	Stone Angel Brewing	micro	1875 Pembina Highway	Winnipeg	Manitoba	R3T 2G7	Canada	49.8216319	-97.1545822		https://stoneangelbrewing.com/	MB	MB
google:ChIJs3pQBBR16lIRZjPfdHO7hx8	The Canadian Brewhouse (Winnipeg)	micro	1715 Kenaston Blvd	Winnipeg	Manitoba	R3Y 1V5	Canada	49.8204824	-97.1972457		https://thecanadianbrewhouse.com/locations/winnipeg/	MB	MB
osm:node:3863043543	Torque Brewing	micro	830 King Edward Street	Winnipeg	Manitoba	R3H 0P4	Canada	49.902802	-97.2073816		http://www.torquebrewing.beer/	MB	MB
osm:node:4276364360	Trans Canada Brewing	micro	1290 Kenaston Boulevard, Unit 1	Winnipeg	Manitoba	R3P 0R7	Canada	49.8324938	-97.2086052		https://www.tcb.beer/	MB	MB
google:ChIJYeoZcB916lIRD0kgdqk_AkU	Trans Canada Brewing Co.	micro	1290 Kenaston Blvd #1	Winnipeg	Manitoba	R3P 2H8	Canada	49.8324473	-97.2084967		http://www.tcb.beer/	MB	MB
osm:way:55536475	Brazen Hall Kitchen and Brewery	micro	800 Pembina Highway		Manitoba	R3M 2M7	Canada	49.8572935	-97.1509518		https://brazenhall.ca/	MB	MB
osm:node:5813904181	Devil May Care Brew Co.	micro	155 Fort Street, Unit A		Manitoba	R3C 1C8	Canada	49.8902293	-97.1370047		https://devilmaycarebrewing.com	MB	MB
osm:node:6610925244	Farmery Estate Brewery	micro	480 Provincial Trunk Highway 5		Manitoba	R1N 3Z4	Canada	50.2284893	-99.479201		http://www.farmery.ca/	MB	MB
osm:way:873307635	Grape & Grain	unknown	726 Osborne Street		Manitoba	R3L 2C2	Canada	49.8615578	-97.1312453		http://grapeandgrain.ca	MB	MB
osm:way:98020694	Half Pints Brewing	micro	550 Roseberry Street		Manitoba	R3H 0T1	Canada	49.8916222	-97.2158779		https://halfpintsbrewing.com/	MB	MB
osm:node:7785772373	Kilter Brewing	micro	450 Deschambault Street		Manitoba	R2H 0K1	Canada	49.8898575	-97.1074981		https://www.kilterbrewing.co/	MB	MB
osm:node:8493085555	Lake of the Woods Brewing Company	brewpub	242 Hargrave Street		Manitoba	R3C 0T8	Canada	49.8909607	-97.1448021		https://www.lowbrewco.com/winnipeg-manitoba/	MB	MB
osm:way:1058673476	Lowlife Barrel House	brewpub	398 Daly Street North		Manitoba	R3L 2K6	Canada	49.8677709	-97.1443685		https://www.lowlifebarrelhouse.com/	MB	MB
osm:way:383101767	Nonsuch Brewery	micro	125 Pacific Ave		Manitoba	R3B 0M1	Canada	49.9005035	-97.133654		http://www.nonsuch.beer/	MB	MB
osm:node:11463748969	Rendezvous Brewery and Taproom	micro	368 Stephen Street		Manitoba	R6M 1T5	Canada	49.1897753	-98.1023299		https://rendezvousbrew.ca/	MB	MB
osm:node:8944666226	Shannon's Irish Pub	micro	175 Carlton Street		Manitoba	R3C 0H9	Canada	49.8894027	-97.1439114		https://www.shannonsirishpub.ca	MB	MB
osm:way:1191947880	Ship & Plough Tavern	brewpub	42 Centre Street		Manitoba	R0C 1B0	Canada	50.6321598	-96.9893694		https://shipandplough.ca	MB	MB
osm:way:1105951637	The Publice Brewhouse and Gallery	brewpub	301 Main St		Manitoba	R5G 0R4	Canada	49.526336	-96.6843272		https://thepublicbrewhouseandgallery.ca/	MB	MB
osm:node:9010647740	Whiteshell Brewpub	brewpub	Park Rd		Manitoba	R0E 0A8	Canada	49.6854594	-95.3258426			MB	MB
osm:node:7389286224	13 Barrels Brewing	micro	215 Cunard Street	Bathurst	New Brunswick	E2A 0C4	Canada	47.6217536	-65.6535265		https://www.13barrels.ca/	NB	NB
google:ChIJU-wS_Rm9oEwRlSacrtwQzdA	CAVOK Brewing Co.	micro	250 Dieppe Boulevard	Dieppe	New Brunswick	E1A 6P8	Canada	46.1054	-64.7075	15069615835	http://cavokbrewing.ca/	NB	NB
google:ChIJy9LJahy8oEwRQzqibJtDSVs	Flying Boats Brewing Company	micro	700 Malenfant Boulevard	Dieppe	New Brunswick	E1A 5V8	Canada	46.1029396	-64.7198132	15068570537	http://www.flyingboatsbrewing.com/	NB	NB
google:ChIJWdwcSJkYpEwRmtbUbiJHjsU	Graystone Brewing	micro	221 King St	Fredericton	New Brunswick	E3B 1E1	Canada	45.9639924	-66.6477804		https://www.graystonebrewing.com/	NB	NB
osm:node:12173117399	Grimross Brewing	brewpub	600 Bishop Drive	Fredericton	New Brunswick	E3C 0B4	Canada	45.9409156	-66.6735369		https://www.grimross.com/	NB	NB
google:ChIJKYiNw_kZpEwRGZgir8pkSVs	Half Cut Brewing Company	micro	67 Main St	Fredericton	New Brunswick	E3A 1C2	Canada	45.9821268	-66.6611868		http://halfcut.ca/	NB	NB
osm:node:2624615357	King Street Ale House	brewpub	546 King Street	Fredericton	New Brunswick	E3B 1C3	Canada	45.9605764	-66.6409606		http://www.thekingstreetalehouse.ca	NB	NB
google:ChIJ4Y1gN1YYpEwRAEd9T4jY5Jo	Mama's Brew Pub	micro	500 Brookside Dr	Fredericton	New Brunswick	E3A 8V2	Canada	45.991811	-66.649687		http://www.mamasbrewpub.com/	NB	NB
google:ChIJO3brSqEhpEwR8Ps83634r7s	Maybee Brew Co	micro	4	Fredericton	New Brunswick	E3B 7K1	Canada	45.9150447	-66.6160133		http://www.maybeebrew.com/	NB	NB
google:ChIJt_BFbV0fpEwR-P7YbAJaMOg	Picaroons Brewing Company	micro	912 Union St	Fredericton	New Brunswick	E3A 5M5	Canada	45.9585821	-66.6244507		http://picaroons.ca/	NB	NB
google:ChIJHdkXdaEYpEwRFUxvu8jPy3I	RustiCo. / King West Brewing Company	micro	304 King St	Fredericton	New Brunswick	E3B 1E3	Canada	45.96273739999999	-66.646093		http://www.rusticofredericton.com/	NB	NB
google:ChIJt2U1uZgYpEwRHrVdwIOp3W4	The Cap- Records / brewery / Live Music	micro	362 Queen St	Fredericton	New Brunswick	E3B 1B2	Canada	45.96333389999999	-66.6441602		https://www.thecaplive.com/	NB	NB
osm:way:96862935	The Picaroons Roundhouse	micro	912 Union Street	Fredericton	New Brunswick	E3A 5M5	Canada	45.9587501	-66.6245887		https://picaroons.ca/experience-the-roundhouse/	NB	NB
google:ChIJKXNCnY0YpEwRkCTQCRLjTUg	Trailway Brewing Co.	micro	280 Main St	Fredericton	New Brunswick	E3A 1C9	Canada	45.97540679999999	-66.6495913		http://www.trailwaybrewing.com/	NB	NB
google:ChIJI3eGfFfBoEwR4VzAImGaEbo	Bogey Free Brewhouse	micro	129 Ammon Rd	Moncton	New Brunswick	E1G 3N9	Canada	46.158548	-64.861188			NB	NB
google:ChIJU-wS_Rm9oEwRlSacrtwQzdA	CAVOK Brewing Co.	micro	250 Dieppe Blvd	Moncton	New Brunswick	E1A 6P8	Canada	46.1054	-64.7075		http://cavokbrewing.ca/	NB	NB
google:ChIJbxkKNK65oEwRJXArmrfOQyo	Celtic Knot Brewing	micro	567 Coverdale Rd Unit 20	Moncton	New Brunswick	E1B 3K7	Canada	46.0632184	-64.8103569		https://www.facebook.com/CelticKnotBrewing/	NB	NB
google:ChIJifQIAN--oEwRt5xkojHTE0E	E&L Wine and Brew Outlet	micro	300 Baig Blvd Unit C5	Moncton	New Brunswick	E1E 1C8	Canada	46.07344070000001	-64.8296313		http://www.elwineandbrew.com/	NB	NB
google:ChIJy9LJahy8oEwRQzqibJtDSVs	Flying Boats Brewing Company	micro	700 Malenfant Blvd	Moncton	New Brunswick	E1A 5V8	Canada	46.1029396	-64.7198132		http://www.flyingboatsbrewing.com/	NB	NB
google:ChIJWcSgp2S5oEwR6R95C3-Izso	Happy Craft Brewing	micro	800 Main St	Moncton	New Brunswick	E1C 0G1	Canada	46.0882578	-64.7779479		http://happycraftbrewing.com/	NB	NB
google:ChIJbQYxINa5oEwR1o02IGtH3p4	O'Creek Brewing Company	micro	175 Barker St	Moncton	New Brunswick	E1C 9T8	Canada	46.0941469	-64.8081596		https://ocreek.beer/	NB	NB
google:ChIJbaphsjm5oEwREruzVZ2agdQ	Pump House - Brewpub & Restaurant	brewpub	5 Orange Ln	Moncton	New Brunswick	E1C 4L6	Canada	46.089776	-64.7744151		https://www.pumphousebrewpub.ca/	NB	NB
osm:node:11742729432	Tide & Boar Brewing	micro	1355 Main Street	Moncton	New Brunswick	E1E 1E9	Canada	46.0846678	-64.7913317		https://tideandboarbrewing.com/	NB	NB
google:ChIJAWBa-jK5oEwRZ-khGwvisgI	Tire Shack Brewing Co	micro	190 John St	Moncton	New Brunswick	E1C 2H9	Canada	46.0929279	-64.7929796		http://www.tireshackbrewing.com/	NB	NB
osm:way:1420758960	Union Brewing	micro	5 Cyr Street	Oromocto	New Brunswick	E2V 2H1	Canada	45.8325239	-66.4961335		http://facebook.com/johnnyjacks	NB	NB
osm:way:71495387	Holy Whale Beer Hall	brewpub	391 Coverdale Road	Riverview	New Brunswick	E1B 3J6	Canada	46.0665389	-64.7984064		https://www.facebook.com/bbRiverview/	NB	NB
osm:node:482576003	Ducky's Pub	micro	Bridge Street	Sackville	New Brunswick	E4L 1G6	Canada	45.8978421	-64.3677863		https://www.facebook.com/duckysbar	NB	NB
osm:way:163021255	Church Street Steakhouse	brewpub	10 Grannan Street	Saint John	New Brunswick	E2L 2B1	Canada	45.2721471	-66.061722		http://www.grannangroup.com/	NB	NB
osm:way:163447231	Gahan House Port City	micro	87 Prince William Street	Saint John	New Brunswick	E2L 2B2	Canada	45.2717776	-66.0623088		https://gahan.ca/	NB	NB
osm:way:163036111	Hopscotch Whisky Bar	micro	45 Canterbury Street	Saint John	New Brunswick	E2L 2C6	Canada	45.2718189	-66.0611872		https://hopscotchbar.ca/	NB	NB
osm:node:1961419487	Loyalist City Brewing Co.	micro	123 Prince William Street	Saint John	New Brunswick	E2L 2B4	Canada	45.2710213	-66.0622207		https://loyalistcitybrewing.ca/	NB	NB
osm:node:5792641961	Picaroons General Store	brewpub	30 Canterbury Street	Saint John	New Brunswick	E2L 2C5	Canada	45.2722561	-66.0610085		http://www.picaroons.ca/	NB	NB
osm:way:1184439462	Cross Creek Brewing	brewpub	553 Main Street	Woodstock	New Brunswick	E7M 2B9	Canada	46.1473616	-67.5747812		http://www.crosscreekbrewing.ca/	NB	NB
osm:node:7009919779	Bagtown Brewing Company	brewpub	45 Main St		New Brunswick	E4L 4A8	Canada	45.8960769	-64.37061		https://m.facebook.com/bagtownbrewing/?ref=bookmarks	NB	NB
osm:node:10599323225	Big Axe Brewery	micro	537 Otis Dr		New Brunswick	E6G 1H5	Canada	45.9730355	-67.2418796		https://bigaxe.ca/	NB	NB
osm:node:3897758827	Big Axe Brewery B&B	micro	537 Otis Dr		New Brunswick	E6G 1H5	Canada	45.9735722	-67.241641		https://bigaxe.ca/	NB	NB
osm:way:515319846	Brew Chez Nous	micro	18 Hamilton Street		New Brunswick	E4P 1W2	Canada	46.2200055	-64.5453203		https://brewcheznous.com/	NB	NB
osm:node:5793034531	Five and Dime	micro	40 Grannan St		New Brunswick	E2L 0E9	Canada	45.272366	-66.0606396		https://www.fiveanddimesj.com/	NB	NB
osm:way:103611952	Graystone Brewery	micro	221 King Street		New Brunswick	E3B 1E1	Canada	45.9640136	-66.6478238		https://www.graystonebrewing.com/	NB	NB
osm:node:10060964405	Holy Whale Brewery	brewpub	8576 Main St		New Brunswick	E4H 1N4	Canada	45.602336	-64.942772		https://facebook.com/pages/Holy-Whale-Brewery/1446845835331820	NB	NB
osm:node:3498458193	Les Brasseurs du Petit-Sault	micro	45 Rue De L' Église		New Brunswick	E3V 1R8	Canada	47.3663319	-68.3270938		http://petitsault.com/en/	NB	NB
osm:node:10965777624	Moonshin'hers	brewpub	45 Rue de l'Église		New Brunswick	E3V 1J6	Canada	47.3662326	-68.3273246		http://www.moonshinhers.com/	NB	NB
osm:node:1355995272	Pump House Brewery	brewpub	5 Orange Ln		New Brunswick	E1C 4L6	Canada	46.0899128	-64.7743445		https://www.pumphousebrewpub.ca/	NB	NB
osm:way:112417731	The Lunar Rogue	brewpub	625 King Street		New Brunswick	E3B 1E9	Canada	45.9601561	-66.6387057			NB	NB
osm:node:1898407679	Union Station Lounge	brewpub	198 Union St		New Brunswick	E2L 2L6	Canada	45.2750265	-66.0585906			NB	NB
osm:way:1429529804	Bonavista Brewing Taproom	brewpub	29 Church Street, Unit 27	Bonavista	Newfoundland and Labrador	A0C 1B0	Canada	48.654	-53.1121818		http://www.bonavistabrewing.com/	NL	NL
osm:way:308091471	Banished Brewery	brewpub	16 Maverick Place	Paradise	Newfoundland and Labrador	A1L 1Y8	Canada	47.5176364	-52.8744689		https://www.banished.ca	NL	NL
google:ChIJMfLHuOu7DEsRy4SyblfBmWU	Banished Brewing Limited	micro	9 Maverick Place	Paradise	Newfoundland and Labrador	A1L 1Y8	Canada	47.5166563	-52.8743635	17097820363	https://banished.ca/	NL	NL
osm:node:4192149704	Port Rexton Brewery	brewpub	6 Ship's Cove Road	Port Rexton	Newfoundland and Labrador	A0C 2H0	Canada	48.389361	-53.3305018		https://www.portrextonbrewing.com	NL	NL
google:ChIJMfLHuOu7DEsRy4SyblfBmWU	Banished Brewing Limited	micro	9 Maverick Place	St. John'S	Newfoundland and Labrador	A1L 1Y8	Canada	47.5166563	-52.8743635		https://banished.ca/	NL	NL
google:ChIJHxVz6NejDEsRcaaeDvTvYe4	Bannerman Brewing Co.	micro	90 Duckworth St	St. John'S	Newfoundland and Labrador	A1C 1E7	Canada	47.5704875	-52.7011554		http://www.bannermanbrewing.com/	NL	NL
osm:way:653116865	Big Ben's Pub	brewpub	55 Rowan Street	St. John'S	Newfoundland and Labrador	A1B 2X2	Canada	47.5745533	-52.7238995		https://www.facebook.com/Bigbenspub	NL	NL
google:ChIJXYuZnaymDEsRBn84a_GlvQk	Brewery Lane, St. John's	micro	Coaker's Meadow Plaza	St. John'S	Newfoundland and Labrador	A1A 0V6	Canada	47.600232	-52.711731		https://www.brewerylane.com/	NL	NL
google:ChIJw2Ic8U2jDEsR_x0J70Id-yg	Dildo Brewing Co. & Museum	micro	332 Water St	St. John'S	Newfoundland and Labrador	A1C 1C1	Canada	47.5612655	-52.7105496		http://www.dildobrewingco.com/	NL	NL
osm:node:11363247268	Gahan House	brewpub	135 Harbour Drive	St. John'S	Newfoundland and Labrador	A1C 6N6	Canada	47.5607563	-52.7092964		https://stjohns.gahan.ca/	NL	NL
google:ChIJpdYWDgCjDEsRFUf1o-2r4Mw	Homage Brew & Bake	micro	260 Water St	St. John'S	Newfoundland and Labrador	A1C 1B7	Canada	47.5627845	-52.7086228		https://www.facebook.com/share/165tovKE9U	NL	NL
google:ChIJN3B-lQijDEsRiEd8eN_ai4Y	Labatt Breweries	micro	60 Leslie St	St. John'S	Newfoundland and Labrador	A1E 2V8	Canada	47.5503928	-52.7233753			NL	NL
google:ChIJI7D4bSO9DEsRGaI_yLojM5g	Landwash Brewery	micro	181 Commonwealth Ave	St. John'S	Newfoundland and Labrador	A1N 4L3	Canada	47.5081788	-52.7943354		http://landwashbrewery.com/	NL	NL
google:ChIJ8ZV3VZSjDEsRkL-_1j3FssE	Molson Breweries	micro	131 Circular Rd	St. John'S	Newfoundland and Labrador	A1C 2Z9	Canada	47.5709364	-52.716569		https://www.molsoncoors.com/our-locations/ca/brewery/stjohn	NL	NL
google:ChIJBSuWgnmnDEsR9aMZ__aASZc	Port Rexton Brewing St. John's Retail Shop	micro	286 Torbay Rd	St. John'S	Newfoundland and Labrador	A1A 4L6	Canada	47.6008407	-52.7117057		http://www.portrextonbrewing.com/	NL	NL
osm:node:2118637335	Quidi Vidi Brewery	micro	Barrows Road	St. John'S	Newfoundland and Labrador	A1A 0J9	Canada	47.5815299	-52.6761152		https://quidividibrewery.ca/	NL	NL
